province_id,province_name,pixel_count,centroid_x,centroid_y,longitude,latitude,mean_red,mean_green,mean_blue,luma_80_ratio,luma_100_ratio,luma_120_ratio
1,Stockholm,1075,3079.443,321.434,16.83938,61.74893,15.551,97.668,200.948,0.900465,0.000000,0.000000
2,Östergötland,652,3050.213,349.325,14.97101,59.29759,16.000,104.337,206.638,0.970859,0.000000,0.000000
3,Småland,892,3051.725,372.463,15.06767,57.26399,16.000,105.154,204.952,0.931614,0.000000,0.000000
4,Bergslagen,1024,3048.801,310.438,14.88073,62.71545,15.543,99.485,209.827,0.986328,0.000000,0.000000
5,Värmland,845,3011.479,316.707,12.49513,62.16447,14.794,97.658,210.337,0.959763,0.000000,0.000000
6,Skåne,273,3012.245,406.048,12.54410,54.31222,15.795,89.582,202.099,0.556777,0.000000,0.000000
7,Västergötland,403,3016.913,350.017,12.84246,59.23675,15.797,95.496,203.538,0.880893,0.000000,0.000000
8,Dalaskogen,1283,3024.998,287.218,13.35923,64.75621,14.143,98.812,216.542,1.000000,0.000000,0.000000
9,Hälsingland,3004,3068.333,255.471,16.12921,67.54652,14.542,97.120,211.190,0.949401,0.000000,0.000000
10,Jämtland,3536,3024.518,237.260,13.32854,69.14703,14.504,101.139,215.764,0.995192,0.000000,0.000000
11,Västerbotten,3415,3136.250,179.830,20.47055,74.19461,15.300,102.800,209.532,0.967789,0.000000,0.000000
12,Sjælland,362,2991.412,412.865,11.21239,53.71307,13.834,73.644,192.080,0.000000,0.000000,0.000000
13,Slesvig,383,2950.102,426.799,8.57185,52.48837,8.854,65.836,189.316,0.000000,0.000000,0.000000
14,Fyn,212,2968.792,418.146,9.76656,53.24887,8.170,65.401,182.906,0.000000,0.000000,0.000000
15,Midtjylland,323,2939.641,404.059,7.90318,54.48702,8.019,64.536,189.929,0.000000,0.000000,0.000000
16,Bohuslän,267,2987.775,349.734,10.97995,59.26165,13.161,79.112,202.775,0.000000,0.000000,0.000000
17,Akershus,1254,2962.974,302.183,9.39462,63.44098,14.912,91.103,212.941,0.785486,0.000000,0.000000
18,Umeå,3628,3077.773,183.469,16.73264,73.87476,14.921,100.391,215.667,0.993936,0.000000,0.000000
19,Österbotten,3496,3185.058,223.968,23.59034,70.31534,14.468,94.857,206.435,0.799485,0.000000,0.000000
20,Trøndelag,2658,2986.972,214.048,10.92859,71.18717,15.029,95.053,209.666,0.834838,0.000000,0.000000
21,Hålogaland,4152,3055.615,120.531,15.31628,79.40647,12.180,77.862,204.618,0.171002,0.000000,0.000000
22,Oplandene,2060,2982.394,275.040,10.63596,65.82658,15.077,101.129,215.505,1.000000,0.000000,0.000000
23,Bergenshus,1432,2901.362,288.999,5.45641,64.59973,12.506,73.478,203.548,0.000000,0.000000,0.000000
24,Stavanger,502,2902.520,335.004,5.53039,60.55629,8.791,66.231,193.106,0.000000,0.000000,0.000000
25,Gotland,268,3095.291,370.224,17.85241,57.46079,15.963,101.929,196.000,0.899254,0.000000,0.000000
26,Halland,266,3005.485,381.778,12.11196,56.44528,15.320,86.947,203.744,0.413534,0.000000,0.000000
27,Finland,1025,3153.347,285.466,21.56339,64.91018,15.206,100.972,204.240,0.955122,0.000000,0.000000
28,Nyland,1094,3204.353,298.730,24.82369,63.74440,14.952,98.374,203.965,0.927788,0.000000,0.000000
29,Tavastland,1586,3201.677,263.979,24.65262,66.79870,15.115,99.316,204.757,0.927491,0.000000,0.000000
30,Viborg,641,3255.165,293.376,28.07165,64.21500,15.062,97.287,204.498,0.946958,0.000000,0.000000
31,Savolax,2122,3236.213,249.014,26.86024,68.11399,15.178,95.295,203.039,0.888313,0.000000,0.000000
32,Kexholm,1675,3287.629,267.327,30.14676,66.50450,14.577,89.598,204.973,0.478209,0.000000,0.000000
33,Neva,591,3279.572,315.565,29.63173,62.26478,15.213,100.440,203.912,0.956007,0.000000,0.000000
34,Ingermanland,677,3259.321,328.866,28.33725,61.09580,15.233,103.381,205.771,0.988183,0.000000,0.000000
35,Ösel,256,3157.566,346.203,21.83308,59.57199,15.785,97.199,196.504,0.828125,0.000000,0.000000
36,Estland,877,3193.892,334.194,24.15501,60.62749,15.434,100.762,204.669,0.966933,0.000000,0.000000
37,Livland,902,3200.412,359.571,24.57182,58.39708,15.365,104.217,206.111,0.986696,0.000000,0.000000
38,Riga,173,3189.133,381.312,23.85083,56.48624,14.717,101.855,204.994,0.988439,0.000000,0.000000
39,Kurland,643,3148.068,381.285,21.22596,56.48866,15.582,105.062,204.212,0.973561,0.000000,0.000000
40,Memel,391,3146.621,419.220,21.13348,53.15450,14.624,108.138,205.043,0.997442,0.000000,0.000000
41,Ostpreussen,449,3132.310,432.000,20.21865,52.03125,15.339,108.873,203.392,0.971047,0.000000,0.000000
42,Warmia,266,3124.868,445.711,19.74301,50.82622,14.748,114.316,207.192,1.000000,0.000000,0.000000
43,Danzig,280,3093.782,437.461,17.75596,51.55130,15.993,112.886,202.918,0.942857,0.000000,0.000000
44,Hamburg,77,2958.273,454.416,9.09414,50.06113,9.208,70.701,201.558,0.000000,0.000000,0.000000
45,Lübeck,78,2971.897,447.667,9.96503,50.65430,10.192,69.731,201.731,0.000000,0.000000,0.000000
46,Mecklenburg,201,2997.378,449.433,11.59377,50.49907,13.642,80.985,203.990,0.014925,0.000000,0.000000
47,Stralsund,119,3006.824,443.563,12.19753,51.01497,14.336,85.580,201.891,0.445378,0.000000,0.000000
48,Kolberg,209,3046.330,446.962,14.72281,50.71625,15.981,110.584,204.493,0.966507,0.000000,0.000000
49,Neumark,272,3044.195,467.386,14.58632,48.92115,16.000,113.603,206.000,1.000000,0.000000,0.000000
50,Berlin,191,3021.220,474.162,13.11775,48.32558,15.131,105.251,206.000,1.000000,0.000000,0.000000
51,Ruppin,149,3006.752,468.128,12.19293,48.85598,14.859,94.544,206.000,0.919463,0.000000,0.000000
52,Magdeburg,199,2990.327,483.070,11.14304,47.54264,13.106,89.126,207.045,0.371859,0.000000,0.000000
53,Lüneburg,215,2968.544,467.377,9.75069,48.92197,11.893,75.028,206.000,0.000000,0.000000,0.000000
54,Bremen,137,2947.029,456.745,8.37545,49.85644,8.766,69.255,196.686,0.000000,0.000000,0.000000
55,Oldenburg,178,2931.624,462.056,7.39071,49.38959,10.258,69.775,199.056,0.000000,0.000000,0.000000
56,Osnabrück,120,2926.733,480.883,7.07813,47.73486,13.050,76.517,206.550,0.000000,0.000000,0.000000
57,Hannover,250,2964.744,488.956,9.50778,47.02535,13.516,82.668,212.912,0.096000,0.000000,0.000000
58,Anhalt,119,2994.034,492.017,11.37999,46.75634,15.286,95.588,207.168,0.941176,0.000000,0.000000
59,Meissen,207,3008.903,494.101,12.33047,46.57311,15.681,108.101,206.391,1.000000,0.000000,0.000000
60,Lausitz,153,3032.092,502.961,13.81267,45.79446,16.000,125.118,212.281,1.000000,0.784314,0.000000
61,Dresden,213,3019.366,504.272,12.99926,45.67919,16.000,120.887,210.451,1.000000,0.370892,0.000000
62,Leipzig,177,2991.955,502.441,11.24711,45.84017,15.192,101.497,210.384,1.000000,0.000000,0.000000
63,Erfurt,205,2974.029,509.224,10.10130,45.24395,15.707,95.278,214.015,1.000000,0.000000,0.000000
64,Niederbayern,181,3001.790,559.751,11.87578,40.80310,16.000,130.707,216.928,1.000000,1.000000,0.000000
65,München,192,2984.240,571.688,10.75395,39.75403,16.000,124.797,214.490,1.000000,0.739583,0.000000
66,Bamberg,148,2978.453,530.919,10.38405,43.33720,16.000,112.622,214.399,1.000000,0.000000,0.000000
67,Franken,93,2983.656,540.527,10.71664,42.49275,16.000,119.720,216.118,1.000000,0.268817,0.000000
68,Memmingen,84,2961.524,570.798,9.30195,39.83224,16.000,121.833,215.167,1.000000,0.416667,0.000000
69,Konstanz,80,2919.688,496.712,6.62775,46.34363,12.550,84.075,207.650,0.100000,0.000000,0.000000
70,Württemberg,254,2951.921,554.579,8.68815,41.25773,16.000,113.850,216.626,1.000000,0.000000,0.000000
71,Leiningen,211,2971.417,542.739,9.93433,42.29830,16.000,114.896,214.573,1.000000,0.052133,0.000000
72,Breisgau,175,2932.674,572.183,7.45787,39.71049,16.000,116.166,215.469,1.000000,0.000000,0.000000
73,Tirol,191,2977.068,583.775,10.29554,38.69166,16.000,124.414,215.084,1.000000,0.806283,0.000000
74,Baden,142,2932.063,561.866,7.41882,40.61723,16.000,110.535,214.514,1.000000,0.000000,0.000000
75,Elsass,171,2922.801,554.404,6.82678,41.27313,16.000,107.053,213.152,1.000000,0.000000,0.000000
76,Salzburg,232,3007.823,576.263,12.26143,39.35189,16.000,133.009,215.060,1.000000,1.000000,0.000000
77,Worms,156,2944.500,543.128,8.21378,42.26412,16.000,104.667,211.962,1.000000,0.000000,0.000000
78,Pfalz,92,2936.087,530.870,7.67601,43.34154,12.467,97.467,212.326,1.000000,0.000000,0.000000
79,Würzburg,173,2963.682,530.451,9.43991,43.37834,15.514,103.532,215.029,1.000000,0.000000,0.000000
80,Trier,205,2911.532,533.395,6.10643,43.11957,14.332,101.127,216.068,1.000000,0.000000,0.000000
81,Hessen,260,2944.396,515.338,8.20714,44.70658,14.542,92.950,214.685,0.903846,0.000000,0.000000
82,Lippe,188,2934.633,505.181,7.58307,45.59934,13.324,88.521,216.441,0.468085,0.000000,0.000000
83,Nassau,210,2928.100,517.224,7.16548,44.54088,15.529,95.000,214.229,0.976190,0.000000,0.000000
84,Berg,155,2919.387,505.245,6.60855,45.59369,13.587,89.381,209.865,0.606452,0.000000,0.000000
85,Köln,101,2911.139,509.505,6.08130,45.21929,13.406,91.129,209.317,0.544554,0.000000,0.000000
86,Münster,231,2923.745,491.325,6.88708,46.81717,12.857,81.091,207.749,0.000000,0.000000,0.000000
87,Calais,90,2836.011,514.200,1.27912,44.80664,13.811,88.167,200.833,0.177778,0.000000,0.000000
88,Artois,203,2845.591,523.916,1.89148,43.95267,14.828,93.300,206.621,0.985222,0.000000,0.000000
89,Picardie,229,2835.694,529.865,1.25887,43.42987,15.721,98.087,206.459,0.986900,0.000000,0.000000
90,Vlaanderen,147,2850.020,509.735,2.17460,45.19910,14.354,83.429,204.374,0.054422,0.000000,0.000000
91,Hainault,168,2867.202,522.000,3.27288,44.12109,14.006,92.250,209.131,0.785714,0.000000,0.000000
92,Brabant,111,2876.865,514.423,3.89051,44.78700,12.757,88.649,209.090,0.171171,0.000000,0.000000
93,Liège,237,2891.819,524.262,4.84636,43.92232,14.059,96.274,215.743,1.000000,0.000000,0.000000
94,Luxemburg,274,2897.690,536.653,5.22165,42.83321,14.153,101.529,215.661,1.000000,0.000000,0.000000
95,Noord,112,2886.089,498.795,4.48014,46.16063,13.134,83.000,205.598,0.000000,0.000000,0.000000
96,Zeeland,82,2869.598,498.012,3.42598,46.22940,12.451,76.390,193.659,0.000000,0.000000,0.000000
97,Holland,124,2881.758,476.194,4.20329,48.14705,8.000,69.927,187.790,0.000000,0.000000,0.000000
98,Utrecht,84,2887.988,487.702,4.60151,47.13553,9.786,77.500,201.595,0.000000,0.000000,0.000000
99,Gelre,144,2900.306,486.458,5.38885,47.24487,12.542,77.785,203.319,0.000000,0.000000,0.000000
100,Friesland,155,2897.406,465.574,5.20354,49.08039,9.665,68.755,195.774,0.000000,0.000000,0.000000
101,Liguria,132,2948.788,638.114,8.48786,33.91579,19.136,133.250,209.008,1.000000,0.962121,0.000000
102,Nice,120,2917.825,648.917,6.50870,32.96631,17.625,137.467,211.700,0.991667,0.950000,0.000000
103,Niklas,178,2922.876,620.152,6.83159,35.49448,19.910,132.910,216.270,1.000000,1.000000,0.000000
104,Lombardia,131,2946.885,615.443,8.36626,35.90835,18.565,130.214,212.008,1.000000,1.000000,0.000000
105,Parma,216,2959.264,634.125,9.15749,34.26636,20.458,134.940,213.190,1.000000,1.000000,0.000000
106,Modena,152,2972.750,637.395,10.01953,33.97898,18.507,131.105,212.309,1.000000,1.000000,0.000000
107,Brescia,129,2967.628,609.961,9.69212,36.39013,20.093,129.992,215.775,1.000000,1.000000,0.000000
108,Verona,146,2975.479,615.459,10.19400,35.90693,19.411,129.322,213.377,1.000000,1.000000,0.000000
109,Mantua,154,2969.474,625.084,9.81013,35.06094,19.312,127.870,206.994,1.000000,1.000000,0.000000
110,Trent,134,2980.410,602.858,10.50919,37.01442,17.948,127.821,215.813,1.000000,1.000000,0.000000
111,Friuli,204,3006.088,605.765,12.15053,36.75896,16.000,125.250,209.828,0.990196,0.627451,0.000000
112,Venezia,55,2995.855,618.436,11.49638,35.64524,16.000,110.818,193.127,0.818182,0.000000,0.000000
113,Ferrara,166,2990.488,630.187,11.15335,34.61249,16.777,120.102,202.145,0.957831,0.530120,0.000000
114,Romagna,112,2993.152,641.991,11.32362,33.57500,16.375,119.491,206.027,0.982143,0.285714,0.000000
115,Pisa,99,2971.646,661.879,9.94899,31.82706,16.303,122.465,201.374,0.949495,0.535354,0.000000
116,Firenze,161,2979.783,652.404,10.46906,32.65983,19.988,130.342,214.205,1.000000,1.000000,0.000000
117,Siena,237,2983.139,669.869,10.68362,31.12478,19.886,130.802,209.616,1.000000,0.962025,0.000000
118,Roma,220,2997.032,683.823,11.57164,29.89839,17.432,133.605,208.959,1.000000,0.995455,0.000000
119,Ancona,247,3012.830,662.300,12.58146,31.79007,16.061,126.538,208.036,0.971660,0.825911,0.000000
120,Abbruzzi,218,3021.220,679.826,13.11777,30.24970,16.193,139.743,211.881,0.995413,0.931193,0.000000
121,Napoli,191,3028.634,701.382,13.59163,28.35508,16.000,148.293,209.476,1.000000,0.984293,0.130890
122,Apulia,224,3082.848,715.813,17.05706,27.08679,16.000,152.000,205.830,0.986607,0.924107,0.482143
123,Calabria,239,3060.088,749.059,15.60221,24.16477,16.000,142.665,205.900,0.966527,0.899582,0.196653
124,Messina,197,3037.371,764.046,14.15011,22.84755,18.482,136.431,208.797,0.984772,0.842640,0.000000
125,Palermo,156,3018.532,763.545,12.94594,22.89156,17.462,135.538,209.942,0.980769,0.916667,0.000000
126,Malta,30,3029.967,798.333,13.67685,19.83398,16.000,121.933,196.833,0.933333,0.566667,0.000000
127,Sardinia,305,2947.341,710.285,8.39538,27.57259,16.000,141.931,208.570,0.977049,0.911475,0.098361
128,Kärnten,172,3031.262,594.529,13.75962,37.74647,16.000,135.267,216.570,1.000000,1.000000,0.000000
129,Krain,240,3032.917,608.658,13.86541,36.50464,16.000,135.979,216.858,1.000000,1.000000,0.000000
130,Istria,161,3025.155,625.335,13.36930,35.03888,16.000,120.764,203.832,0.931677,0.484472,0.000000
131,Croatia,321,3055.660,616.685,15.31920,35.79914,16.000,141.075,211.907,1.000000,1.000000,0.000000
132,Steiermark,303,3031.657,580.086,13.78488,39.01590,16.000,135.442,216.502,1.000000,1.000000,0.000000
133,Linz,324,3034.929,557.130,13.99404,41.03353,16.000,133.932,216.432,1.000000,1.000000,0.000000
134,Wien,268,3061.720,566.586,15.70654,40.20242,16.000,135.642,211.918,1.000000,1.000000,0.000000
135,Sopron,507,3068.905,583.122,16.16582,38.74902,16.000,137.667,211.209,1.000000,0.982249,0.000000
136,Dalmatia,266,3062.647,658.380,15.76576,32.13460,16.000,140.203,208.109,0.984962,0.894737,0.033835
137,Ragusa,157,3083.968,670.841,17.12865,31.03939,16.000,146.643,209.675,0.987261,0.917197,0.242038
138,Zeta,273,3112.190,672.806,18.93263,30.86667,16.604,157.982,214.582,1.000000,1.000000,0.992674
139,Hum,353,3078.244,652.555,16.76273,32.64651,16.025,154.759,213.881,1.000000,1.000000,0.410765
140,Bosnia,373,3086.686,632.279,17.30239,34.42862,17.134,147.582,214.260,1.000000,1.000000,0.000000
141,Serbia,281,3128.762,643.377,19.99186,33.45317,18.520,149.772,214.534,1.000000,1.000000,0.074733
142,Corfu,68,3114.618,732.044,19.08778,25.66018,16.000,154.015,209.000,1.000000,0.985294,0.735294
143,Albania,237,3121.793,716.249,19.54644,27.04843,16.000,167.481,213.059,1.000000,1.000000,0.928270
144,Janina,275,3129.171,730.451,20.01803,25.80021,16.000,171.415,213.615,1.000000,1.000000,0.996364
145,Morea,251,3157.892,778.478,21.85392,21.57907,15.960,174.466,211.024,1.000000,0.948207,0.872510
146,Athens,255,3168.945,755.824,22.56041,23.57020,16.000,168.090,208.396,1.000000,0.984314,0.796078
147,Salonica,483,3154.333,732.569,21.62642,25.61402,16.000,167.586,211.174,0.993789,0.968944,0.875776
148,Macedonia,300,3170.770,712.660,22.67706,27.36387,16.000,153.330,208.567,0.983333,0.930000,0.740000
149,Edirne,417,3222.624,691.626,25.99156,29.21257,16.000,156.607,210.707,1.000000,1.000000,0.616307
150,Bulgaria,711,3186.391,662.487,23.67556,31.77364,16.557,154.540,214.041,1.000000,1.000000,0.554149
151,Constantinople,272,3243.474,697.875,27.32435,28.66333,16.000,151.202,206.625,0.988971,0.897059,0.397059
152,Slavonia,244,3060.066,600.570,15.60078,37.21556,16.000,139.762,213.832,1.000000,1.000000,0.000000
153,Pecs,688,3108.176,581.041,18.67601,38.93197,16.000,134.205,208.299,1.000000,1.000000,0.000000
154,Ersekujvar,312,3098.186,558.096,18.03745,40.94858,16.000,133.766,212.606,1.000000,1.000000,0.000000
155,Szolnok,600,3137.023,595.495,20.51996,37.66157,16.000,137.568,208.983,1.000000,1.000000,0.000000
156,Banat,466,3150.697,618.185,21.39401,35.66737,16.270,146.043,213.747,1.000000,1.000000,0.000000
157,Partium,569,3163.204,579.868,22.19343,39.03502,16.000,136.218,214.547,1.000000,1.000000,0.000000
158,Transylvania,498,3203.592,598.482,24.77508,37.39905,16.000,139.373,216.502,1.000000,1.000000,0.000000
159,Silistria,430,3242.426,652.393,27.25732,32.66077,16.000,141.470,207.740,0.972093,0.930233,0.000000
160,Oltenia,475,3178.025,642.446,23.14082,33.53499,16.000,145.114,207.166,1.000000,1.000000,0.000000
161,Wallachia,471,3199.180,628.614,24.49307,34.75076,16.000,143.170,211.227,1.000000,1.000000,0.000000
162,Carpathia,805,3146.358,553.671,21.11662,41.33753,16.000,130.911,210.691,1.000000,1.000000,0.000000
163,Crete,250,3193.160,811.552,24.10824,18.67219,15.760,180.252,209.972,1.000000,0.976000,0.888000
164,Naxos,104,3194.471,774.413,24.19205,21.93632,15.779,151.231,208.106,0.990385,0.923077,0.548077
165,Bern,120,2921.833,586.750,6.76491,38.43018,16.000,118.617,217.083,1.000000,0.000000,0.000000
166,Schwyz,135,2938.444,593.511,7.82670,37.83594,16.000,122.489,215.741,1.000000,0.533333,0.000000
167,Caux,321,2820.798,540.209,0.30666,42.52072,15.533,104.629,205.969,0.987539,0.000000,0.000000
168,Normandie,417,2803.067,550.074,-0.82667,41.65362,15.988,112.050,208.156,0.997602,0.000000,0.000000
169,Armor,186,2769.022,561.790,-3.00289,40.62390,16.000,113.672,205.651,0.930108,0.000000,0.000000
170,Finistère,389,2746.391,562.928,-4.44946,40.52390,15.923,115.884,204.360,0.976864,0.082262,0.000000
171,Morbihan,243,2761.848,573.222,-3.46144,39.61914,16.000,114.979,204.321,0.942387,0.000000,0.000000
172,Vendée,223,2778.395,584.350,-2.40375,38.64113,16.000,113.888,204.143,0.968610,0.000000,0.000000
173,Labourd,268,2790.425,655.090,-1.63474,32.42377,19.101,133.854,206.295,1.000000,1.000000,0.000000
174,Gascogne,488,2796.621,636.162,-1.23872,34.08733,16.842,126.086,205.738,0.995902,0.803279,0.000000
175,Armagnac,249,2809.281,652.771,-0.42947,32.62754,19.639,135.759,210.610,1.000000,1.000000,0.000000
176,Béarn,198,2803.222,664.242,-0.81676,31.61932,19.985,144.707,214.919,1.000000,1.000000,0.000000
177,Maine,426,2799.296,574.880,-1.06774,39.47341,16.000,113.160,206.122,1.000000,0.000000,0.000000
178,Anjou,351,2800.997,591.205,-0.95899,38.03861,16.000,116.670,207.701,1.000000,0.000000,0.000000
179,Berry,453,2840.258,591.366,1.55060,38.02443,16.225,119.978,211.812,1.000000,0.247241,0.000000
180,Poitou,344,2815.137,603.951,-0.05519,36.91841,16.000,119.657,209.253,1.000000,0.145349,0.000000
181,Valenciennes,234,2876.265,536.786,3.85216,42.82151,13.483,97.299,210.987,1.000000,0.000000,0.000000
182,Vermandois,310,2844.429,541.735,1.81720,42.38653,15.200,101.068,207.410,1.000000,0.000000,0.000000
183,Île-de-France,246,2841.407,556.358,1.62400,41.10137,16.000,107.793,207.163,1.000000,0.000000,0.000000
184,Orléannais,248,2835.690,575.677,1.25856,39.40335,16.000,114.387,207.883,1.000000,0.000000,0.000000
185,Nemours,397,2854.730,567.957,2.47567,40.08189,16.000,113.547,209.975,1.000000,0.002519,0.000000
186,Champagne,491,2865.859,548.340,3.18704,41.80604,14.835,100.921,208.697,1.000000,0.000000,0.000000
187,Barrois,159,2890.572,563.906,4.76670,40.43798,14.881,109.604,215.943,1.000000,0.000000,0.000000
188,Metz,190,2909.037,549.689,5.94696,41.68745,15.632,104.795,214.111,1.000000,0.000000,0.000000
189,Lothringen,288,2904.712,563.115,5.67050,40.50751,15.958,110.625,216.194,1.000000,0.000000,0.000000
190,Bourbon,332,2852.907,603.015,2.35909,37.00063,17.690,125.867,214.548,1.000000,0.900602,0.000000
191,Nevers,253,2859.277,584.344,2.76627,38.64165,17.364,124.656,213.561,1.000000,0.750988,0.000000
192,Bourgogne,247,2885.538,583.482,4.44493,38.71742,16.000,115.798,213.636,1.000000,0.000000,0.000000
193,Franche-Comté,303,2900.858,580.508,5.42417,38.97877,16.000,114.535,213.693,1.000000,0.000000,0.000000
194,Périgord,219,2815.635,631.078,-0.02335,34.53419,18.781,126.393,207.721,1.000000,0.936073,0.000000
195,Limousin,284,2832.725,625.130,1.06909,35.05691,18.377,128.035,213.856,1.000000,1.000000,0.000000
196,Toulouse,282,2831.191,654.496,0.97105,32.47590,19.532,138.894,213.344,1.000000,1.000000,0.000000
197,Roussillon,104,2847.279,674.779,1.99936,30.69327,18.856,141.769,212.750,0.990385,0.836538,0.000000
198,Rouergue,313,2849.272,643.288,2.12673,33.46106,19.863,138.284,217.019,1.000000,1.000000,0.000000
199,Auvergne,474,2851.795,623.129,2.28806,35.23283,18.304,130.734,216.335,1.000000,1.000000,0.000000
200,Languedoc,293,2868.304,651.447,3.34328,32.74391,19.420,136.191,210.679,0.993174,0.976109,0.000000
201,Toulon,189,2886.931,655.661,4.53396,32.37351,18.175,134.894,208.122,1.000000,0.978836,0.000000
202,Avignon,124,2884.895,645.548,4.40381,33.26235,19.823,137.581,212.234,1.000000,1.000000,0.000000
203,Lyonnais,220,2880.295,617.245,4.10979,35.74991,17.391,131.309,215.895,1.000000,1.000000,0.000000
204,Dauphiné,360,2892.608,630.247,4.89684,34.60718,19.558,136.944,216.856,1.000000,1.000000,0.000000
205,Savoie,212,2903.910,617.934,5.61927,35.68940,17.571,131.882,215.542,1.000000,1.000000,0.000000
206,Galicia,288,2674.045,665.580,-9.07382,31.50177,17.125,130.233,209.972,0.996528,0.920139,0.000000
207,Asturias,362,2713.102,661.884,-6.57727,31.82660,16.870,137.033,211.669,0.997238,0.900552,0.000000
208,León,296,2711.392,673.382,-6.68660,30.81606,19.162,144.733,216.980,1.000000,1.000000,0.000000
209,Vizcaya,254,2765.654,665.744,-3.21817,31.48734,19.260,140.102,210.531,0.996063,0.964567,0.000000
210,Navarra,305,2781.705,674.721,-2.19216,30.69832,20.780,147.118,216.957,1.000000,1.000000,0.019672
211,Pirineo,381,2803.848,680.509,-0.77678,30.18962,21.591,148.328,217.144,1.000000,1.000000,0.000000
212,Girona,227,2846.555,684.709,1.95309,29.82048,17.784,142.097,211.648,0.982379,0.894273,0.000000
213,Barcelona,209,2833.732,694.421,1.13344,28.96690,19.933,145.536,210.589,0.985646,0.909091,0.000000
214,Zaragoza,322,2800.130,695.730,-1.01439,28.85187,21.422,153.276,217.106,1.000000,1.000000,0.708075
215,Castilla La Vieja,336,2731.143,697.554,-5.42411,28.69158,20.607,154.958,217.366,1.000000,1.000000,0.735119
216,Salamanca,395,2710.706,708.208,-6.73042,27.75519,20.344,155.625,216.592,1.000000,1.000000,0.807595
217,Madrid,353,2750.020,712.637,-4.21748,27.36585,21.873,159.329,216.589,1.000000,1.000000,1.000000
218,Badajoz,411,2705.881,751.258,-7.03887,23.97147,20.759,161.175,216.513,1.000000,1.000000,1.000000
219,Toledo,563,2745.943,729.586,-4.47806,25.87622,21.670,159.934,216.979,1.000000,1.000000,1.000000
220,València,190,2797.868,725.437,-1.15898,26.24090,23.011,148.105,210.121,0.968421,0.921053,0.436842
221,Murcia,318,2782.557,761.022,-2.13772,23.11330,21.283,147.541,211.789,0.996855,0.927673,0.355346
222,Almería,317,2768.577,773.839,-3.03128,21.98680,22.653,148.571,213.132,0.990536,0.962145,0.511041
223,Granada,352,2752.355,774.250,-4.06821,21.95068,21.378,153.835,215.713,0.997159,0.997159,0.869318
224,Andalucía,437,2716.064,772.396,-6.38795,22.11364,19.453,156.412,210.082,1.000000,0.997712,0.581236
225,Córdoba,404,2731.047,760.713,-5.43023,23.14047,21.933,158.832,217.151,1.000000,1.000000,1.000000
226,Gibraltar,59,2721.492,790.525,-6.04102,20.52023,20.627,146.966,206.373,0.983051,0.830508,0.559322
227,Lisboa,179,2665.240,737.134,-9.63663,25.21283,16.067,130.810,205.302,1.000000,0.949721,0.000000
228,Beira,317,2690.650,719.981,-8.01244,26.72041,19.369,148.562,215.710,1.000000,1.000000,0.063091
229,Beja,381,2679.709,761.808,-8.71180,23.04418,18.787,150.181,209.228,1.000000,1.000000,0.236220
230,Algarve,164,2678.476,774.116,-8.79062,21.96247,17.537,149.427,209.567,1.000000,0.920732,0.378049
231,Porto,236,2675.051,694.335,-9.00953,28.97449,18.148,136.275,212.424,1.000000,1.000000,0.000000
232,Bragança,384,2694.091,696.289,-7.79247,28.80272,19.281,146.224,217.117,1.000000,1.000000,0.000000
233,Cornwall,142,2730.655,521.007,-5.45530,44.20837,15.761,104.676,201.169,0.880282,0.000000,0.000000
234,Wessex,294,2782.146,505.643,-2.16395,45.55873,13.952,98.119,204.701,0.965986,0.000000,0.000000
235,Kent,148,2817.399,504.581,0.08940,45.65205,14.682,84.277,198.541,0.331081,0.000000,0.000000
236,London,142,2804.697,494.676,-0.72248,46.52261,12.697,84.141,204.296,0.042254,0.000000,0.000000
237,Oxfordshire,277,2789.325,492.412,-1.70508,46.72164,12.347,90.960,207.271,0.732852,0.000000,0.000000
238,Essex,185,2815.849,490.686,-0.00967,46.87326,10.351,77.622,200.697,0.000000,0.000000,0.000000
239,Gloucestershire,192,2770.948,492.609,-2.87975,46.70425,13.875,95.068,206.411,0.973958,0.000000,0.000000
240,Shrewsbury,314,2765.019,478.704,-3.25872,47.92642,14.029,93.169,208.707,0.773885,0.000000,0.000000
241,Glamorgan,177,2752.746,495.119,-4.04324,46.48371,15.395,100.011,206.898,0.909605,0.000000,0.000000
242,Gwynedd,250,2746.948,466.376,-4.41384,49.00992,14.072,87.504,202.864,0.432000,0.000000,0.000000
243,Lincoln,225,2802.476,463.858,-0.86449,49.23125,9.067,72.062,199.636,0.000000,0.000000,0.000000
244,Lancashire,205,2763.946,447.156,-3.32729,50.69917,13.395,77.659,205.590,0.000000,0.000000,0.000000
245,Yorkshire,195,2776.836,444.626,-2.50339,50.92157,13.646,77.626,212.969,0.000000,0.000000,0.000000
246,Northumberland,367,2775.989,423.362,-2.55751,52.79041,9.970,69.757,203.409,0.000000,0.000000,0.000000
247,Cumbria,288,2760.681,432.017,-3.53604,52.02972,12.618,73.771,208.649,0.000000,0.000000,0.000000
248,Lothian,303,2753.693,402.221,-3.98269,54.64853,9.043,68.469,195.422,0.000000,0.000000,0.000000
249,Ayrshire,359,2737.281,415.777,-5.03173,53.45709,10.067,71.671,204.301,0.000000,0.000000,0.000000
250,Perth,234,2745.218,389.568,-4.52442,55.76059,12.778,72.812,209.274,0.000000,0.000000,0.000000
251,Aberdeen,563,2761.909,375.972,-3.45749,56.95562,9.636,67.263,196.829,0.000000,0.000000,0.000000
252,Inverness,498,2732.207,380.189,-5.35610,56.58497,10.098,70.749,206.645,0.000000,0.000000,0.000000
253,Outer Hebrides,184,2698.848,359.647,-7.48842,58.39042,8.000,60.467,175.495,0.000000,0.000000,0.000000
254,Poznan,480,3063.873,481.842,15.84415,47.65063,16.000,120.077,206.121,1.000000,0.170833,0.000000
255,Kalisz,243,3084.309,493.700,17.15041,46.60843,16.000,124.576,208.733,1.000000,0.823045,0.000000
256,Plock,206,3119.762,475.199,19.41661,48.23446,16.000,117.743,206.573,1.000000,0.009709,0.000000
257,Mazovia,441,3138.093,490.844,20.58833,46.85945,16.000,119.034,209.079,1.000000,0.124717,0.000000
258,Lodz,311,3101.331,501.579,18.23850,45.91593,16.000,123.846,212.354,1.000000,0.688103,0.000000
259,Sandomir,401,3138.646,511.334,20.62367,45.05852,16.000,124.853,211.968,1.000000,0.788030,0.000000
260,Galicien,487,3157.485,507.228,21.82785,45.41942,16.000,122.977,211.462,1.000000,0.716632,0.000000
261,Halicz,487,3206.368,561.706,24.95247,40.63128,16.000,131.887,214.337,1.000000,1.000000,0.000000
262,Krakow,276,3113.163,523.250,18.99480,44.01123,16.000,127.362,214.707,1.000000,1.000000,0.000000
263,Ratibor,224,3093.879,529.013,17.76218,43.50468,16.000,130.321,215.951,1.000000,1.000000,0.000000
264,Breslau,301,3073.578,506.442,16.46451,45.48851,16.000,124.093,209.532,1.000000,0.684385,0.000000
265,Moravia,278,3061.406,540.234,15.68649,42.51851,16.000,132.773,214.928,1.000000,1.000000,0.000000
266,Bohemia,294,3034.204,528.085,13.94770,43.58628,16.000,136.969,215.150,1.000000,1.000000,0.000000
267,Plsen,307,3016.293,535.215,12.80283,42.95962,16.000,133.723,215.687,1.000000,1.000000,0.000000
268,Bessarabia,400,3218.730,584.168,25.74268,38.65715,16.000,134.530,215.250,1.000000,1.000000,0.000000
269,Podlasia,508,3160.959,476.569,22.04991,48.11406,15.398,116.768,208.272,1.000000,0.000000,0.000000
270,Troki,331,3187.795,435.894,23.76528,51.68898,14.375,106.051,207.432,1.000000,0.000000,0.000000
271,Samogitia,951,3160.596,407.580,22.02675,54.17750,14.627,106.580,206.967,1.000000,0.000000,0.000000
272,Lithuania,371,3211.981,436.957,25.31129,51.59559,14.636,105.903,210.987,1.000000,0.000000,0.000000
273,Letgallen,689,3230.984,393.814,26.52597,55.38742,14.091,104.158,209.216,1.000000,0.000000,0.000000
274,Pskov,692,3247.186,354.208,27.56163,58.86843,15.220,104.230,205.386,0.985549,0.000000,0.000000
275,Polotsk,682,3259.172,403.774,28.32773,54.51203,14.173,102.815,208.487,1.000000,0.000000,0.000000
276,Minsk,797,3237.172,447.610,26.92150,50.65930,14.400,106.915,211.670,1.000000,0.000000,0.000000
277,Grodno,546,3177.855,484.335,23.12996,47.43148,15.282,116.328,208.993,1.000000,0.000000,0.000000
278,Polesia,557,3210.483,485.808,25.21553,47.30204,14.826,114.257,208.214,1.000000,0.000000,0.000000
279,Volhynia,734,3201.226,506.247,24.62383,45.50567,15.975,119.898,211.074,1.000000,0.217984,0.000000
280,Kiev,520,3274.650,513.854,29.31712,44.83706,14.885,116.587,209.383,1.000000,0.000000,0.000000
281,Podolia,644,3236.668,548.239,26.88927,41.81492,16.000,127.188,214.449,1.000000,0.979814,0.000000
282,Yedisan,1060,3280.829,586.236,29.71210,38.47536,15.883,123.358,206.019,0.993396,0.740566,0.000000
283,Zaporozhia,815,3336.953,568.901,33.29958,39.99897,15.130,122.842,206.731,1.000000,0.506748,0.000000
284,Crimea,491,3335.945,618.208,33.23512,35.66534,15.542,125.503,204.562,0.967413,0.851324,0.000000
285,Kaffa,252,3359.024,626.706,34.71033,34.91839,15.480,124.821,203.377,0.956349,0.793651,0.000000
286,Azow,292,3415.007,585.401,38.28879,38.54877,15.962,118.240,204.795,0.993151,0.085616,0.000000
287,Kouban,928,3413.041,611.772,38.16313,36.23102,15.822,128.488,206.119,0.998922,0.926724,0.000000
288,Cherkassk,1164,3460.277,561.624,41.18251,40.63854,16.000,129.875,206.709,1.000000,1.000000,0.000000
289,Chernigov,671,3303.742,495.416,31.17670,46.45760,14.556,112.398,207.842,1.000000,0.000000,0.000000
290,Poltava,1013,3347.520,539.304,33.97502,42.60023,14.986,118.373,207.153,1.000000,0.012833,0.000000
291,Kharkov,1034,3382.108,532.599,36.18590,43.18957,15.737,117.165,208.450,1.000000,0.000000,0.000000
292,Mogilyov,580,3279.176,459.709,29.60641,49.59592,14.033,105.805,208.143,1.000000,0.000000,0.000000
293,Smolensk,997,3308.943,432.859,31.50913,51.95579,14.078,102.298,211.436,1.000000,0.000000,0.000000
294,Tver,484,3367.545,383.876,35.25504,56.26090,13.895,90.343,209.733,0.840909,0.000000,0.000000
295,Moskva,638,3387.497,411.304,36.53034,53.85023,14.434,94.179,211.351,1.000000,0.000000,0.000000
296,Kaluga,563,3366.144,431.469,35.16545,52.07793,14.535,100.172,212.876,1.000000,0.000000,0.000000
297,Bryansk,863,3339.422,452.917,33.45736,50.19288,13.868,106.663,211.067,1.000000,0.000000,0.000000
298,Kursk,923,3378.052,500.017,35.92662,46.05316,15.915,114.925,211.621,1.000000,0.000000,0.000000
299,Voronezh,1365,3416.908,507.722,38.41034,45.37603,16.000,119.085,209.615,1.000000,0.098901,0.000000
300,Tula,912,3393.879,448.350,36.93831,50.59426,15.610,107.401,213.510,1.000000,0.000000,0.000000
301,Ryazan,646,3424.144,437.594,38.87284,51.53955,16.000,108.981,210.875,1.000000,0.000000,0.000000
302,Tambow,1662,3443.922,471.934,40.13705,48.52139,16.000,118.540,208.792,1.000000,0.103490,0.000000
303,Saratow,1274,3512.801,498.510,44.53986,46.18563,16.000,124.401,209.224,1.000000,0.662480,0.000000
304,Pensa,1634,3498.009,458.147,43.59430,49.73318,16.000,122.081,211.595,1.000000,0.532436,0.000000
305,Perm,2349,3680.393,382.035,55.25236,56.42271,15.256,107.822,212.415,1.000000,0.000000,0.000000
306,Nijni-Novgorod,1233,3502.409,394.440,43.87556,55.33239,15.987,111.339,208.670,1.000000,0.000000,0.000000
307,Vladimir,713,3434.762,416.748,39.55152,53.37180,15.397,104.084,207.832,1.000000,0.000000,0.000000
308,Yaroslavl,381,3420.984,366.465,38.67087,57.79120,13.693,90.213,209.079,0.837270,0.000000,0.000000
309,Olonets,2861,3337.276,277.447,33.32023,65.61504,14.764,96.850,205.571,0.868927,0.000000,0.000000
310,Novgorod,1101,3300.952,342.873,30.99834,59.86469,14.658,102.095,206.751,1.000000,0.000000,0.000000
311,Kholm,1139,3280.730,358.826,29.70578,58.46254,15.224,102.222,206.490,1.000000,0.000000,0.000000
312,Vologda,1056,3393.074,299.412,36.88682,63.68450,14.062,96.508,209.330,0.964962,0.000000,0.000000
313,Archangelsk,1707,3360.251,228.424,34.78875,69.92366,14.448,97.252,205.865,0.911541,0.000000,0.000000
314,Ustyug,848,3422.008,329.801,38.73632,61.01361,14.070,93.244,208.904,0.878538,0.000000,0.000000
315,Finnmark,5880,3190.579,59.560,23.94328,84.76528,8.981,60.018,191.425,0.000000,0.000000,0.000000
316,Kocaeli,372,3273.927,708.718,29.27093,27.71035,16.000,156.067,210.634,0.997312,0.970430,0.505376
317,Hüdavendigar,472,3254.072,722.970,28.00176,26.45769,15.958,167.890,213.915,1.000000,1.000000,0.953390
318,Sugla,261,3228.843,756.969,26.38911,23.46949,16.000,170.157,208.640,1.000000,1.000000,0.915709
319,Mentese,496,3253.556,777.849,27.96881,21.63438,15.988,180.726,211.933,1.000000,0.989919,0.965726
320,Rhodes,72,3235.014,789.917,26.78356,20.57373,16.000,157.708,207.875,1.000000,0.930556,0.694444
321,Cyprus,282,3324.465,814.904,32.50128,18.37756,15.982,171.996,206.755,1.000000,0.982270,0.854610
322,Kütahya,481,3264.894,737.884,28.69351,25.14695,16.000,173.979,215.410,1.000000,1.000000,1.000000
323,Konya,527,3305.822,758.000,31.30962,23.37891,16.000,178.797,216.256,1.000000,1.000000,1.000000
324,Karaman,598,3323.301,773.341,32.42691,22.03056,16.000,181.875,215.779,1.000000,1.000000,1.000000
325,Kastamonu,420,3328.826,696.064,32.78008,28.82247,16.000,159.707,214.414,1.000000,0.997619,0.885714
326,Ankara,674,3311.398,729.150,31.66604,25.91456,16.000,168.978,215.145,1.000000,1.000000,1.000000
327,Adana,707,3359.167,773.584,34.71948,22.00920,15.982,176.089,211.682,0.998586,0.994342,0.968883
328,Sinop,352,3352.614,696.077,34.30059,28.82138,16.000,155.594,213.188,0.991477,0.963068,0.735795
329,Sivas,641,3385.877,732.754,36.42678,25.59784,16.000,170.529,214.727,1.000000,1.000000,1.000000
330,Trebizond,549,3425.179,709.080,38.93897,27.67850,16.000,161.911,213.131,1.000000,0.989071,0.930783
331,Erzurum,576,3447.503,725.648,40.36599,26.22238,16.000,166.816,215.151,1.000000,1.000000,1.000000
332,Marash,382,3380.029,760.141,36.05298,23.19070,16.000,176.762,217.275,1.000000,1.000000,1.000000
333,The Baleares,111,2852.072,730.802,2.30574,25.76937,16.405,130.360,201.081,0.945946,0.864865,0.000000
334,Tangiers,165,2714.873,810.788,-6.46410,18.73935,20.636,152.994,207.679,1.000000,1.000000,0.581818
335,Mellila,235,2749.383,816.689,-4.25819,18.22066,20.200,152.051,213.089,0.978723,0.961702,0.672340
336,Tlemcen,487,2784.795,827.103,-1.99466,17.30543,21.501,155.595,217.086,1.000000,1.000000,0.926078
337,Oran,185,2795.470,806.973,-1.31227,19.07464,20.443,146.292,208.892,0.994595,0.951351,0.400000
338,Al-Djazair,327,2850.294,791.101,2.19206,20.46965,17.743,143.538,212.630,1.000000,0.954128,0.000000
339,Kabylia,639,2883.315,789.878,4.30278,20.57713,17.915,143.501,213.376,0.995305,0.982786,0.000000
340,Constantine,548,2916.735,798.712,6.43905,19.80073,19.515,147.372,217.443,1.000000,1.000000,0.000000
341,Tunis,294,2965.847,789.677,9.57828,20.59481,17.837,134.500,206.738,0.965986,0.894558,0.000000
342,Toubkhal,223,2703.363,837.601,-7.19979,16.38273,20.453,161.996,214.278,1.000000,1.000000,0.910314
343,Fez,728,2738.611,830.148,-4.94672,17.03774,21.287,157.821,216.453,1.000000,1.000000,0.972527
344,Marrakech,323,2683.294,870.724,-8.48262,13.47148,21.294,173.359,216.424,1.000000,1.000000,1.000000
345,Safi,194,2665.268,869.428,-9.63486,13.58544,21.088,172.211,211.696,1.000000,1.000000,1.000000
346,Figuig,948,2734.744,878.133,-5.19394,12.82035,21.497,170.201,216.541,1.000000,1.000000,1.000000
347,Ifni,462,2621.820,940.799,-12.41205,7.31261,16.266,181.656,209.539,1.000000,1.000000,0.991342
348,Sus,785,2674.540,907.434,-9.04218,10.24502,21.136,184.460,217.102,1.000000,1.000000,1.000000
349,Atlas,725,2769.251,854.637,-2.98822,14.88540,21.748,163.314,216.779,1.000000,1.000000,1.000000
350,Aures,1069,2857.744,837.892,2.66828,16.35711,19.923,156.766,216.415,1.000000,1.000000,0.769878
351,Biskra,769,2901.411,824.573,5.45951,17.52772,18.079,145.490,210.843,1.000000,1.000000,0.037711
352,Gafsa,1162,2934.857,843.718,7.59740,15.84512,17.381,146.377,208.033,0.996558,0.968158,0.059380
353,Tataouine,585,2967.776,851.896,9.70160,15.12635,18.421,151.359,210.930,0.996581,0.965812,0.442735
354,Tripolitania,320,3013.428,862.597,12.61970,14.18582,16.000,163.363,210.684,0.993750,0.993750,0.775000
355,Sirt,924,3080.343,897.022,16.89693,11.16021,15.728,196.532,209.495,1.000000,0.996753,0.967532
356,Cyrenaica,1181,3128.186,882.164,19.95509,12.46603,15.102,200.693,207.945,1.000000,1.000000,0.995766
357,Darnah,623,3160.596,867.398,22.02670,13.76384,15.669,198.915,208.772,1.000000,0.987159,0.956661
358,Alexandria,320,3259.100,892.938,28.32315,11.51917,15.887,184.197,206.234,1.000000,1.000000,0.987500
359,Fayyum,338,3281.417,920.746,29.74968,9.07510,15.710,186.763,207.914,1.000000,1.000000,1.000000
360,Qus,345,3320.725,973.206,32.26223,4.46433,16.000,201.568,213.684,1.000000,1.000000,1.000000
361,Cairo,199,3293.131,909.558,30.49841,10.05840,15.829,188.196,209.945,1.000000,1.000000,1.000000
362,Rosetta,183,3282.514,884.470,29.81977,12.26338,15.585,180.016,205.874,1.000000,0.994536,0.956284
363,Damietta,179,3298.067,885.240,30.81394,12.19568,15.503,177.788,207.352,1.000000,0.977654,0.916201
364,Gaza,440,3333.336,888.698,33.06838,11.89180,15.973,187.550,209.802,1.000000,1.000000,0.972727
365,Sinai,786,3337.204,917.420,33.31557,9.36740,15.939,191.606,214.132,1.000000,0.988550,0.965649
366,The Canarias,105,2578.619,932.914,-15.17350,8.00558,15.714,156.010,195.124,0.990476,0.847619,0.723810
367,The Azores,112,2385.357,757.777,-27.52689,23.39852,15.884,132.000,205.357,0.919643,0.758929,0.000000
368,Madeira,51,2540.882,855.725,-17.58565,14.78975,15.725,144.745,201.392,0.941176,0.745098,0.372549
369,Orkney,67,2758.776,334.657,-3.65778,60.58681,8.000,59.075,169.881,0.000000,0.000000,0.000000
370,Reykjavik,3290,2478.334,150.461,-21.58378,76.77585,8.828,59.774,192.677,0.000000,0.000000,0.000000
371,Akureyri,4378,2543.622,145.764,-17.41053,77.18871,8.792,56.743,192.299,0.000000,0.000000,0.000000
372,Tyrone,393,2694.728,434.583,-7.75178,51.80426,13.606,79.165,200.374,0.000000,0.000000,0.000000
373,Meath,276,2704.594,452.232,-7.12111,50.25306,14.891,83.236,196.736,0.170290,0.000000,0.000000
374,Leinster,206,2702.888,475.073,-7.23015,48.24555,14.893,89.782,196.597,0.694175,0.000000,0.000000
375,Munster,277,2668.715,467.477,-9.41454,48.91320,14.383,91.765,201.895,0.689531,0.000000,0.000000
376,Connaught,395,2659.099,451.266,-10.02920,50.33796,14.352,85.218,198.357,0.192405,0.000000,0.000000
377,Aleppo,436,3388.073,794.289,36.56719,20.18944,16.000,181.576,215.594,1.000000,1.000000,1.000000
378,Tripoli,304,3369.855,820.799,35.40268,17.85943,16.000,183.391,211.234,1.000000,1.000000,1.000000
379,Jerusalem,211,3351.754,887.280,34.24561,12.01644,15.815,192.953,213.839,1.000000,0.981043,0.976303
380,Al Karak,340,3368.785,883.197,35.33429,12.37526,15.306,197.753,214.841,1.000000,1.000000,1.000000
381,Ajlun,245,3368.327,866.755,35.30496,13.82035,16.000,196.069,213.216,1.000000,1.000000,1.000000
382,Damascus,396,3374.000,844.667,35.66761,15.76172,16.000,194.513,214.710,1.000000,1.000000,1.000000
383,Tabuk,842,3378.726,931.932,35.96968,8.09189,16.000,206.105,215.765,1.000000,1.000000,1.000000
384,Medina,1165,3420.888,985.052,38.66469,3.42313,14.910,215.548,216.634,1.000000,1.000000,1.000000
385,Mecca,390,3431.541,1040.944,39.34566,-1.48918,15.656,215.779,216.505,1.000000,1.000000,1.000000
386,Bishah,824,3479.157,1088.267,42.38927,-5.64847,16.000,215.760,216.752,1.000000,1.000000,1.000000
387,Mokha,262,3489.534,1186.401,43.05262,-14.27350,16.000,206.584,209.786,1.000000,1.000000,1.000000
388,Aden,598,3520.808,1178.339,45.05163,-13.56499,15.931,211.020,214.570,1.000000,0.998328,0.998328
389,Mukalla,629,3552.933,1163.561,47.10511,-12.26612,14.983,212.525,215.401,1.000000,0.993641,0.990461
390,Sana'a,385,3492.917,1147.990,43.26883,-10.89752,15.475,215.870,216.610,1.000000,1.000000,1.000000
391,Najran,917,3509.248,1108.325,44.31270,-7.41137,15.588,216.000,217.000,1.000000,1.000000,1.000000
392,Al-Arid,546,3540.337,994.830,46.29995,2.56380,15.619,213.430,218.187,1.000000,1.000000,1.000000
393,Jabal Shammar,2971,3455.254,952.120,40.86144,6.31759,15.140,212.823,216.487,1.000000,1.000000,1.000000
394,El Catif,1066,3561.154,953.341,47.63057,6.21031,15.826,198.136,209.749,1.000000,0.990619,0.961538
395,Qatar,573,3599.569,992.206,50.08608,2.79440,15.148,193.086,206.197,1.000000,0.982548,0.947644
396,Bahrain,44,3594.364,972.023,49.75336,4.56831,14.864,169.773,195.182,1.000000,0.772727,0.772727
397,Bani Yas,555,3641.195,1012.198,52.74681,1.03727,15.339,198.757,206.769,1.000000,0.994595,0.983784
398,Qawasim,685,3672.815,995.182,54.76798,2.53279,15.912,198.112,209.164,0.998540,0.985401,0.979562
399,Suhar,253,3688.723,1004.889,55.78487,1.67965,15.984,202.020,211.739,1.000000,0.992095,0.932806
400,Muscat,310,3717.990,1021.316,57.65563,0.23589,15.352,205.794,210.519,1.000000,0.977419,0.974194
401,Dhofar,664,3651.089,1115.532,53.37926,-8.04477,14.608,211.697,214.825,1.000000,0.990964,0.984940
402,Mahra,503,3601.557,1145.167,50.21314,-10.64944,14.638,211.944,214.292,1.000000,0.988072,0.988072
403,Nizwa,875,3693.011,1032.498,56.05897,-0.74692,15.209,208.997,211.816,1.000000,1.000000,1.000000
404,Liwa,580,3650.226,1024.957,53.32410,-0.08410,14.262,202.005,207.747,1.000000,1.000000,1.000000
405,Tadmor,1103,3411.891,828.267,38.08964,17.20314,16.000,187.971,215.824,1.000000,1.000000,1.000000
406,Haditha,752,3467.988,832.210,41.67537,16.85653,16.000,184.650,211.957,1.000000,1.000000,1.000000
407,Ar Raqqa,831,3422.107,798.238,38.74264,19.84234,16.000,181.059,216.486,1.000000,1.000000,1.000000
408,Basra,259,3552.000,900.691,47.04545,10.83769,16.000,180.494,206.637,1.000000,0.992278,0.949807
409,Karballa,415,3486.988,856.718,42.88985,14.70251,15.499,184.116,206.569,1.000000,1.000000,1.000000
410,Baghdad,578,3500.941,845.926,43.78175,15.65107,15.135,179.161,206.000,1.000000,1.000000,1.000000
411,Mosul,524,3478.819,790.960,42.36767,20.48204,16.000,178.090,214.323,1.000000,1.000000,1.000000
412,Ahvaz,953,3571.774,887.485,48.30944,11.99841,15.882,182.957,207.365,1.000000,0.997901,0.983211
413,Lorestan,402,3567.485,848.358,48.03527,15.43727,16.000,183.871,215.445,1.000000,1.000000,1.000000
414,Hamadan,597,3574.030,822.580,48.45363,17.70297,16.000,180.682,216.203,1.000000,1.000000,1.000000
415,Kirkuk,399,3499.140,811.865,43.66664,18.64471,15.729,179.464,211.476,1.000000,1.000000,1.000000
416,Azerbaijan,428,3532.612,761.727,45.80617,23.05137,16.000,173.519,215.035,1.000000,1.000000,1.000000
417,Gilan,194,3587.155,780.433,49.29256,21.40726,16.000,176.624,213.639,1.000000,0.989691,0.932990
418,Diyarbakir,521,3432.090,761.044,39.38077,23.11135,16.000,174.931,217.146,1.000000,1.000000,1.000000
419,Yerevan,489,3500.454,720.211,43.75061,26.70024,16.000,164.319,215.141,1.000000,0.995910,0.957055
420,Ganja,354,3525.774,711.681,45.36908,27.44993,16.000,167.113,213.802,1.000000,1.000000,1.000000
421,Shirvan,552,3570.668,726.830,48.23875,26.11848,15.942,163.875,209.937,0.992754,0.969203,0.858696
422,Imereti,429,3475.718,681.096,42.16947,30.13808,16.000,158.298,215.473,1.000000,1.000000,0.962704
423,Kartli,300,3505.110,699.923,44.04822,28.48330,16.000,163.873,214.047,1.000000,1.000000,0.986667
424,Ardabil,563,3549.398,748.604,46.87913,24.20473,16.000,174.321,216.071,1.000000,1.000000,1.000000
425,Dagestan,296,3565.247,698.510,47.89218,28.60751,16.000,159.797,210.919,0.996622,0.952703,0.807432
426,Amol,279,3608.699,790.283,50.66968,20.54152,16.000,189.523,214.014,1.000000,0.992832,0.935484
427,Shahrud,1277,3668.088,808.622,54.46583,18.92973,15.840,201.185,216.283,1.000000,1.000000,1.000000
428,Rey,377,3608.263,806.891,50.64179,19.08182,16.000,196.626,214.629,1.000000,1.000000,1.000000
429,Isfahan,439,3616.246,857.278,51.15209,14.65331,15.727,200.645,214.547,1.000000,1.000000,1.000000
430,Bushehr,467,3604.600,918.152,50.40764,9.30304,15.996,193.400,210.383,1.000000,1.000000,0.997859
431,Hormuz,614,3686.752,944.645,55.65889,6.97456,15.980,200.974,212.814,1.000000,0.993485,0.991857
432,Kerman,2001,3709.188,890.744,57.09301,11.71199,16.000,198.155,215.657,1.000000,1.000000,1.000000
433,Dash-i-Lut,997,3671.434,871.651,54.67975,13.39005,16.000,199.937,216.329,1.000000,1.000000,1.000000
434,Quhistan,1514,3753.962,947.860,59.95494,6.69199,16.000,203.362,215.396,1.000000,1.000000,1.000000
435,Sistan,1197,3752.259,894.366,59.84610,11.39362,16.000,194.715,215.258,1.000000,1.000000,1.000000
436,Birjand,1424,3733.537,856.426,58.64940,14.72816,16.000,195.602,214.841,1.000000,1.000000,1.000000
437,Atak,1384,3693.280,747.730,56.07611,24.28150,16.000,175.463,209.129,1.000000,1.000000,1.000000
438,Kara Kum,2106,3703.009,717.028,56.69802,26.97996,16.000,161.883,207.807,1.000000,1.000000,0.933998
439,Mangyshlak,2754,3632.836,647.137,52.21254,33.12270,16.000,143.926,207.161,0.997458,0.981845,0.000000
440,Qaraqalpak,978,3750.236,661.556,59.71680,31.85541,16.000,139.004,205.517,0.998978,0.978528,0.000000
441,Khiva,2491,3767.230,713.443,60.80308,27.29507,16.000,159.592,208.963,1.000000,1.000000,0.805701
442,Bukhara,1623,3809.075,727.786,63.47782,26.03442,16.000,166.811,213.545,1.000000,1.000000,1.000000
443,Ust Yurt,3252,3673.596,663.746,54.81792,31.66298,16.000,148.336,209.392,0.999692,0.998770,0.138376
444,Charjuy,2119,3793.580,761.667,62.48733,23.05659,16.000,174.457,212.181,1.000000,1.000000,1.000000
445,Marv,1519,3782.681,787.793,61.79067,20.76041,16.000,184.110,213.782,1.000000,1.000000,1.000000
446,Herat,864,3782.714,820.779,61.79281,17.86123,16.000,192.939,215.098,1.000000,1.000000,1.000000
447,Kandahar,1012,3837.152,881.831,65.27251,12.49532,15.077,200.584,216.289,1.000000,1.000000,1.000000
448,Gazni,1262,3871.586,856.354,67.47351,14.73449,16.000,195.807,215.052,1.000000,1.000000,1.000000
449,Ghor,1556,3812.752,840.044,63.71284,16.16803,16.000,194.186,215.716,1.000000,1.000000,1.000000
450,Balkh,953,3856.244,803.685,66.49290,19.36361,16.000,184.321,215.516,1.000000,1.000000,1.000000
451,Kabul,983,3871.125,825.609,67.44408,17.43668,16.000,189.213,215.694,1.000000,1.000000,1.000000
452,Badakhshan,1037,3922.711,793.393,70.74145,20.26815,16.000,180.437,216.191,1.000000,1.000000,1.000000
453,Qarshi,592,3823.269,754.106,64.38507,23.72112,16.000,174.353,215.735,1.000000,1.000000,1.000000
454,Samarkand,827,3847.235,744.104,65.91698,24.60024,16.000,172.799,215.510,1.000000,1.000000,1.000000
455,Kyrzyl-Kum,1988,3805.477,675.506,63.24781,30.62935,15.933,147.074,210.916,1.000000,1.000000,0.067907
456,Turkestan,3986,3842.963,619.665,65.64395,35.53727,15.453,134.241,214.539,1.000000,1.000000,0.000000
457,Tashkent,1365,3891.130,707.605,68.72278,27.80814,16.000,162.700,214.403,1.000000,1.000000,0.977289
458,Kokand,1209,3918.163,746.993,70.45076,24.34628,16.000,171.484,215.084,1.000000,1.000000,1.000000
459,Taraz,2289,3939.099,650.675,71.78901,32.81181,16.000,151.560,216.146,1.000000,1.000000,0.127567
460,Uzkend,1041,3930.780,719.911,71.25725,26.72660,16.000,165.943,214.863,1.000000,1.000000,1.000000
461,Zhetysu,4417,4025.649,644.478,77.32132,33.35645,17.248,154.715,215.482,1.000000,1.000000,0.576636
462,Mingrelia,329,3459.787,675.359,41.15117,30.64231,15.994,152.863,210.559,1.000000,0.996960,0.322188
463,Circassia,1089,3439.389,637.398,39.84733,33.97873,16.000,144.375,211.107,1.000000,1.000000,0.000000
464,Astrakhan,1582,3547.997,604.386,46.78961,36.88012,16.000,134.748,202.168,0.993047,0.970923,0.000000
465,Nogay,2105,3644.434,592.162,52.95389,37.95447,16.000,130.334,203.741,0.999050,0.990024,0.000000
466,Sarai,2054,3521.753,562.332,45.11203,40.57629,16.000,131.191,205.576,1.000000,0.999513,0.000000
467,Borisoglebsk,1464,3453.796,518.678,40.76820,44.41310,16.000,127.596,209.243,1.000000,0.935109,0.000000
468,Khazaria,1314,3481.454,586.431,42.53610,38.45824,16.000,134.790,206.476,1.000000,1.000000,0.000000
469,Ryn,1886,3583.702,578.478,49.07186,39.15718,16.000,129.178,203.306,0.998409,0.983563,0.000000
470,Bayuly,2316,3639.947,548.847,52.66706,41.76152,16.000,123.457,204.601,1.000000,0.577288,0.000000
471,Alimuly,3541,3701.499,595.751,56.60148,37.63905,15.986,128.726,207.103,0.996894,0.932505,0.000000
472,Zhetyru,2787,3696.568,538.056,56.28631,42.70992,15.940,123.625,212.637,1.000000,0.582705,0.000000
473,Samara,1217,3574.042,477.563,48.45438,48.02670,15.784,117.836,206.460,1.000000,0.064092,0.000000
474,Yaik,1674,3587.935,508.565,49.34243,45.30195,16.000,120.101,205.909,1.000000,0.220430,0.000000
475,Bashkortostan,1992,3668.324,442.832,54.48092,51.07919,14.804,107.871,213.090,1.000000,0.000000,0.000000
476,Kypshak,3265,3889.887,536.033,68.64336,42.88774,15.746,118.119,213.698,1.000000,0.159877,0.000000
477,Nadym,3983,3936.112,584.157,71.59807,38.65811,16.000,132.736,214.863,0.998243,0.895556,0.000000
478,Argyn,2270,4021.222,531.542,77.03837,43.28245,16.000,127.539,209.163,1.000000,0.922467,0.000000
479,Kerey,1882,3906.444,473.219,69.70169,48.40845,15.786,112.931,210.863,1.000000,0.000000,0.000000
480,Kulunda,5164,4116.866,426.160,83.15196,52.54457,15.718,114.554,210.979,1.000000,0.000000,0.000000
481,Bermuda,93,1827.333,634.968,-63.19602,34.19229,16.000,119.118,195.215,0.956989,0.365591,0.000000
482,Bahamas,291,1598.158,769.223,-77.84501,22.39248,17.158,134.189,197.564,0.879725,0.780069,0.182131
483,Turks Islands,110,1663.673,824.373,-73.65728,17.54537,15.873,141.073,200.964,0.954545,0.872727,0.281818
484,Havana,226,1520.987,811.761,-82.77784,18.65381,16.000,157.619,205.513,1.000000,1.000000,0.752212
485,Moron,311,1573.373,825.177,-79.42928,17.47469,18.865,161.939,204.855,0.996785,0.964630,0.832797
486,Guantamano,264,1619.568,852.174,-76.47647,15.10187,18.640,167.458,206.216,0.996212,0.996212,0.958333
487,Jamaica,240,1598.875,885.525,-77.79918,12.17065,17.488,170.842,205.492,1.000000,0.983333,0.816667
488,Les Cayes,164,1658.000,882.189,-74.01989,12.46386,16.000,163.921,205.006,1.000000,0.975610,0.792683
489,Tortuga,102,1669.137,859.422,-73.30799,14.46490,16.000,158.961,204.696,0.990196,0.970588,0.784314
490,Barahonas,170,1712.541,878.235,-70.53359,12.81135,16.265,163.771,208.047,1.000000,0.982353,0.876471
491,Curacao,116,1719.509,977.905,-70.08823,4.05130,15.440,159.000,201.569,0.931034,0.862069,0.689655
492,Puerto Rico,209,1768.206,884.531,-66.97549,12.25801,16.000,159.407,204.789,0.995215,0.990431,0.794258
493,St. Thomas,56,1797.500,886.714,-65.10298,12.06613,15.929,142.839,201.750,0.982143,0.839286,0.321429
494,St. Martin,27,1830.444,899.148,-62.99716,10.97331,15.556,140.963,192.481,0.851852,0.814815,0.592593
495,St. Kitts,29,1837.586,907.000,-62.54065,10.28320,16.000,142.034,193.621,1.000000,0.758621,0.379310
496,Antigua,71,1845.859,918.296,-62.01184,9.29041,16.000,153.014,200.662,0.985915,0.957746,0.549296
497,Guadelopue,46,1848.522,930.304,-61.84165,8.23497,16.000,156.261,201.217,1.000000,0.934783,0.695652
498,Dominica,56,1853.607,942.964,-61.51659,7.12228,15.964,158.250,204.661,0.982143,0.910714,0.696429
499,Martinique,50,1854.880,955.540,-61.43523,6.01699,16.000,159.480,201.820,0.980000,0.920000,0.560000
500,St. Lucia,83,1847.807,974.639,-61.88732,4.33841,16.000,154.361,195.373,1.000000,0.891566,0.614458
501,Barbados,42,1876.214,967.381,-60.07153,4.97628,16.000,157.333,201.667,0.952381,0.928571,0.738095
502,Trinidad,143,1852.154,1007.930,-61.60948,1.41240,15.755,167.469,202.483,0.993007,0.930070,0.762238
503,Kutch,863,3896.219,1013.306,69.04809,0.93991,15.279,203.086,206.483,1.000000,0.997683,0.995365
504,Thatta,717,3863.570,992.596,66.96118,2.76016,15.710,204.208,209.686,1.000000,1.000000,1.000000
505,Sehwan,316,3860.244,959.949,66.74853,5.62945,15.861,208.870,214.032,1.000000,1.000000,1.000000
506,Multan,296,3927.821,905.446,71.06810,10.41979,16.000,201.757,210.220,1.000000,1.000000,1.000000
507,Lahore,228,3972.487,880.075,73.92316,12.64970,16.000,199.026,215.860,1.000000,1.000000,1.000000
508,Kashmir,1058,3972.846,834.444,73.94612,16.66017,16.000,188.373,215.533,1.000000,1.000000,1.000000
509,Kangra,683,4006.839,866.272,76.11897,13.86278,16.000,192.678,215.918,1.000000,1.000000,1.000000
510,Sirhind,259,3998.436,892.537,75.58187,11.55439,16.000,200.548,216.541,1.000000,1.000000,1.000000
511,Garhwal,267,4033.446,897.783,77.81968,11.09331,16.000,200.483,216.566,1.000000,1.000000,1.000000
512,Jangladesh,611,3949.740,932.457,72.46916,8.04580,15.224,205.478,209.316,1.000000,1.000000,1.000000
513,Jaisalmer,1041,3914.583,951.910,70.22193,6.33606,15.568,204.791,208.200,1.000000,1.000000,1.000000
514,Marwar,721,3940.904,961.594,71.90439,5.48494,15.105,210.098,213.656,1.000000,1.000000,1.000000
515,Girnar,191,3910.848,1048.979,69.98319,-2.19542,15.969,208.476,208.565,1.000000,1.000000,1.000000
516,Baroda,233,3956.189,1036.262,72.88139,-1.07770,14.562,207.309,207.618,1.000000,1.000000,1.000000
517,Surat,264,3949.716,1054.303,72.46764,-2.66335,15.568,204.678,207.527,1.000000,1.000000,1.000000
518,Chittorgarh,292,3976.538,995.229,74.18210,2.52866,15.589,211.503,216.699,1.000000,1.000000,1.000000
519,Dundhar,406,3996.466,956.167,75.45589,5.96184,14.990,212.229,217.502,1.000000,1.000000,1.000000
520,Mewat,216,4002.370,940.130,75.83333,7.37142,15.528,209.648,215.194,1.000000,1.000000,1.000000
521,Rajkot,209,3908.608,1038.651,69.83998,-1.28766,16.000,207.144,208.670,1.000000,1.000000,1.000000
522,Delhi,333,4015.279,932.093,76.65848,8.07776,16.000,206.709,213.937,1.000000,1.000000,1.000000
523,Oudh,330,4072.967,966.679,80.34588,5.03800,15.806,205.994,211.594,1.000000,1.000000,1.000000
524,Central Doab,402,4030.430,948.338,77.62694,6.64995,15.980,204.092,211.565,1.000000,1.000000,1.000000
525,Gird,662,4021.736,974.450,77.07117,4.35497,15.943,210.662,214.035,1.000000,1.000000,1.000000
526,Mandu,451,3990.843,1030.603,75.09647,-0.58035,15.486,214.530,214.663,1.000000,1.000000,1.000000
527,Khandesh,351,3998.795,1044.912,75.60479,-1.83794,15.783,214.741,214.154,1.000000,1.000000,1.000000
528,Hadoti,529,3999.183,996.178,75.62962,2.44532,15.739,212.178,216.089,1.000000,1.000000,1.000000
529,North Konkan,231,3949.468,1085.939,72.45176,-5.44389,15.442,207.394,209.723,1.000000,1.000000,1.000000
530,South Konkan,137,3953.679,1120.971,72.72095,-8.52282,16.000,208.387,210.190,1.000000,1.000000,1.000000
531,North Kanara,112,3974.143,1181.339,74.02902,-13.82865,15.714,205.179,208.777,1.000000,1.000000,1.000000
532,Raichur Doab,211,4018.592,1139.716,76.87025,-10.17032,14.000,216.000,217.000,1.000000,1.000000,1.000000
533,Mysore,238,4003.332,1210.084,75.89480,-16.35504,14.588,215.975,216.924,1.000000,1.000000,1.000000
534,Malabar,144,3997.653,1224.590,75.53178,-17.63000,15.778,210.049,211.972,1.000000,1.000000,1.000000
535,Kochin,149,3999.765,1235.463,75.66680,-18.58562,16.000,207.034,210.235,1.000000,1.000000,1.000000
536,Madurai,299,4029.866,1244.753,77.59088,-19.40208,15.766,205.231,209.191,1.000000,1.000000,0.979933
537,Venad,252,4005.036,1250.611,76.00370,-19.91699,15.992,207.381,210.575,1.000000,1.000000,1.000000
538,Kongu,355,4012.961,1223.592,76.51026,-17.54223,15.730,215.042,215.775,1.000000,1.000000,1.000000
539,Tondainadu,174,4052.483,1180.724,79.03654,-13.77458,15.718,201.029,206.167,1.000000,0.959770,0.959770
540,Coromandel,120,4048.950,1206.608,78.81072,-16.04956,15.908,198.867,204.658,1.000000,1.000000,0.966667
541,Vijayanagar,319,4002.320,1160.633,75.83010,-12.00878,14.000,216.000,217.000,1.000000,1.000000,1.000000
542,Golconda,363,4031.752,1112.793,77.71142,-7.80411,14.066,215.967,216.901,1.000000,1.000000,1.000000
543,Velanadu,231,4069.732,1133.013,80.13909,-9.58122,15.459,201.991,205.823,1.000000,0.995671,0.982684
544,Ahmadnagar,364,3990.525,1095.777,75.07615,-6.30857,14.000,216.000,217.000,1.000000,1.000000,1.000000
545,Marathwada,358,3984.905,1075.168,74.71694,-4.49715,14.000,216.000,217.000,1.000000,1.000000,1.000000
546,East Berar,720,4047.036,1056.250,78.68839,-2.83447,15.314,215.032,214.806,1.000000,1.000000,1.000000
547,Bastar,588,4075.231,1097.005,80.49064,-6.41646,15.124,213.650,214.301,1.000000,1.000000,1.000000
548,West Berar,321,4010.265,1055.231,76.33795,-2.74487,14.237,215.882,216.645,1.000000,1.000000,1.000000
549,Kalingandhra,347,4094.395,1112.089,81.71558,-7.74223,15.571,207.801,209.605,1.000000,0.985591,0.974063
550,Mahakoshal,439,4051.820,1014.289,78.99418,0.85348,15.818,212.118,217.269,1.000000,1.000000,1.000000
551,Mandla,613,4071.395,1027.855,80.24540,-0.33880,16.000,210.416,216.233,1.000000,1.000000,1.000000
552,Cuttack,274,4150.350,1069.770,85.29228,-4.02276,15.982,193.139,205.635,1.000000,0.985401,0.934307
553,Sambalpur,404,4115.718,1041.035,83.07855,-1.49719,15.658,196.240,214.129,1.000000,1.000000,1.000000
554,Baisi Rayja,247,4088.377,926.555,81.33089,8.56453,16.000,200.186,215.773,1.000000,1.000000,1.000000
555,Jaunpur,260,4092.554,977.292,81.59790,4.10517,15.554,204.608,209.688,1.000000,1.000000,1.000000
556,Lower Doab,210,4079.767,987.671,80.78054,3.19294,15.624,208.148,211.371,1.000000,1.000000,1.000000
557,Katmandu,319,4142.260,940.326,84.77515,7.35416,16.000,194.959,214.969,1.000000,1.000000,1.000000
558,Patna,386,4132.008,990.013,84.11981,2.98714,16.000,197.596,209.225,1.000000,1.000000,1.000000
559,Bundelkhand,282,4034.142,986.106,77.86418,3.33049,15.284,215.000,215.064,1.000000,1.000000,1.000000
560,Jharkand,488,4140.262,1018.250,84.64745,0.50537,16.000,202.588,215.068,1.000000,1.000000,1.000000
561,Bengal Delta,222,4190.946,1040.550,87.88717,-1.45455,16.000,191.703,205.761,1.000000,0.995495,0.981982
562,Koch,453,4195.894,963.938,88.20345,5.27887,16.000,194.331,214.901,1.000000,1.000000,1.000000
563,Gauda,258,4181.508,983.488,87.28388,3.56059,16.000,195.078,212.566,1.000000,1.000000,1.000000
564,Dacca,255,4214.937,1007.749,89.42071,1.42831,16.000,189.678,205.988,1.000000,1.000000,1.000000
565,Bhutan,267,4202.655,950.438,88.63565,6.46539,16.000,191.948,215.225,1.000000,1.000000,1.000000
566,Assam,335,4275.931,961.140,93.31948,5.52478,16.000,190.057,215.531,1.000000,1.000000,1.000000
567,Sylhet,300,4239.033,996.497,90.96094,2.41729,16.000,187.497,206.467,1.000000,1.000000,1.000000
568,Chittagong,468,4246.502,1037.024,91.43835,-1.14464,16.000,192.237,207.603,1.000000,0.993590,0.985043
569,Bijapur,430,3986.235,1129.270,74.80195,-9.25223,14.000,216.000,217.000,1.000000,1.000000,1.000000
570,Naga,402,4274.856,971.851,93.25072,4.58343,15.806,192.015,215.881,1.000000,1.000000,1.000000
571,Darrang,612,4245.941,962.284,91.40249,5.42423,16.000,191.745,215.289,1.000000,1.000000,1.000000
572,Kotte,160,4058.719,1297.375,79.43515,-24.02710,16.000,201.694,207.019,1.000000,1.000000,1.000000
573,Kachar,376,4259.165,991.359,92.24776,2.86883,16.000,191.854,212.795,1.000000,1.000000,1.000000
574,The Andamans,157,4256.331,1214.159,92.06663,-16.71321,15.439,184.070,207.159,1.000000,0.891720,0.834395
575,Eastern Makran,799,3796.531,977.562,62.67597,4.08147,15.159,206.150,212.662,1.000000,0.997497,0.986233
576,Indus,1469,3843.701,937.595,65.69113,7.59419,15.946,208.340,215.818,1.000000,1.000000,1.000000
577,Quetta,913,3860.012,892.358,66.73372,11.57008,15.816,201.959,215.725,1.000000,1.000000,1.000000
578,Khyber,427,3923.703,833.878,70.80485,16.70992,16.000,192.276,216.012,1.000000,1.000000,1.000000
579,Arakan,753,4261.481,1060.762,92.39579,-3.23106,16.000,200.624,210.270,1.000000,0.997344,0.990704
580,Chin,302,4273.745,1032.685,93.17973,-0.76337,16.000,203.639,215.490,1.000000,1.000000,1.000000
581,Sagaing,201,4296.448,1036.015,94.63089,-1.05600,16.000,202.045,208.204,1.000000,1.000000,1.000000
582,Kachin,448,4320.045,1002.058,96.13922,1.92849,16.000,196.813,213.712,1.000000,1.000000,1.000000
583,Hsenwi,775,4341.594,1020.840,97.51663,0.27773,16.000,206.915,215.560,1.000000,1.000000,1.000000
584,Kyuakse,305,4301.875,1046.570,94.97783,-1.98373,16.000,207.692,209.626,1.000000,1.000000,1.000000
585,Toungoo,356,4312.815,1093.907,95.67707,-6.14420,15.562,213.910,212.803,1.000000,1.000000,1.000000
586,Pegu,286,4312.486,1111.580,95.65607,-7.69750,14.280,207.066,207.745,1.000000,1.000000,1.000000
587,Keng Tung,700,4361.419,1053.041,98.78386,-2.55247,16.000,216.001,216.970,1.000000,1.000000,1.000000
588,Mongnai,245,4338.037,1060.094,97.28928,-3.17231,16.000,216.000,217.000,1.000000,1.000000,1.000000
589,Chiang Mai,246,4345.114,1085.996,97.74165,-5.44886,15.163,216.000,217.000,1.000000,1.000000,1.000000
590,Moulmein,303,4327.063,1118.736,96.58782,-8.32640,15.538,208.238,210.568,1.000000,1.000000,1.000000
591,Tenasserim,338,4344.109,1176.296,97.67745,-13.38538,15.917,208.707,210.086,1.000000,1.000000,0.991124
592,Ratchaburi,184,4359.321,1178.185,98.64976,-13.55140,16.000,210.228,210.228,1.000000,1.000000,1.000000
593,Ligore,453,4367.806,1276.373,99.19213,-22.18123,16.000,201.534,207.678,1.000000,0.984547,0.969095
594,Pattani,207,4389.739,1299.357,100.59412,-24.20134,16.000,205.285,208.227,1.000000,0.995169,0.975845
595,Perak,246,4383.402,1332.089,100.18908,-27.07817,16.000,207.756,209.431,1.000000,1.000000,1.000000
596,Malacca,197,4407.066,1362.777,101.70166,-29.77529,16.000,204.990,206.030,1.000000,1.000000,1.000000
597,Johor,261,4422.513,1369.985,102.68907,-30.40881,16.000,200.341,206.441,1.000000,1.000000,0.977011
598,Pahang,206,4417.631,1351.534,102.37699,-28.78717,16.000,199.680,205.150,1.000000,1.000000,0.941748
599,Kelantan,337,4399.318,1317.264,101.20637,-25.77516,16.000,211.941,213.139,1.000000,1.000000,0.994065
600,Ayutthaya,226,4374.310,1169.248,99.60787,-12.76592,16.000,206.535,206.336,1.000000,1.000000,1.000000
601,Sukthothai,478,4353.833,1118.362,98.29896,-8.29353,15.293,214.672,215.132,1.000000,1.000000,1.000000
602,Chian Rai,404,4364.926,1080.272,99.00804,-4.94581,16.000,216.000,217.000,1.000000,1.000000,1.000000
603,Rayong,295,4400.492,1191.502,101.28142,-14.72183,16.000,205.627,207.834,1.000000,0.996610,0.993220
604,Udong,224,4437.263,1206.438,103.63189,-16.03455,16.000,207.817,208.411,1.000000,1.000000,1.000000
605,Prei Nokoi,244,4475.164,1226.885,106.05451,-17.83171,15.971,199.951,207.602,1.000000,0.987705,0.983607
606,Panduranga,302,4495.861,1217.781,107.37747,-17.03157,16.000,206.887,212.149,1.000000,1.000000,0.976821
607,Vijaya,275,4504.960,1175.644,107.95909,-13.32805,16.000,207.651,212.022,1.000000,1.000000,0.949091
608,Champassak,203,4476.241,1156.488,106.12338,-11.64443,16.842,215.961,216.911,1.000000,1.000000,1.000000
609,Siem Reap,392,4431.926,1179.064,103.29073,-13.62865,16.000,206.548,207.630,1.000000,1.000000,1.000000
610,Binh Tri Thien,272,4449.441,1070.507,104.41030,-4.08756,15.544,210.301,212.816,1.000000,0.992647,0.992647
611,Thakhek,438,4436.628,1105.434,103.59127,-7.15727,16.000,215.628,215.158,1.000000,1.000000,1.000000
612,Khorat,532,4402.028,1163.968,101.37964,-12.30188,16.000,213.353,212.368,1.000000,1.000000,1.000000
613,Thang Long,318,4455.126,1055.679,104.77367,-2.78431,15.572,207.780,209.305,1.000000,1.000000,1.000000
614,Vientiane,691,4399.803,1099.425,101.23742,-6.62919,16.000,215.690,216.301,1.000000,1.000000,1.000000
615,Luang Prabang,425,4393.736,1079.134,100.84963,-4.84577,16.000,216.000,217.000,1.000000,1.000000,1.000000
616,Viet Bac,609,4457.511,1035.240,104.92611,-0.98787,15.373,214.419,215.251,1.000000,1.000000,1.000000
617,Aceh,264,4301.955,1323.258,94.98289,-26.30194,17.489,205.686,209.170,1.000000,1.000000,0.992424
618,Aru,201,4367.289,1365.194,99.15907,-29.98776,17.582,202.463,206.871,1.000000,0.995025,0.970149
619,Minangkabau,209,4350.445,1373.359,98.08242,-30.70537,17.794,208.833,211.459,1.000000,1.000000,1.000000
620,Siak,510,4398.510,1389.869,101.15475,-32.15642,17.647,199.741,207.776,1.000000,1.000000,0.990196
621,Benkulen,444,4417.831,1465.959,102.38977,-38.84409,22.480,208.928,211.962,1.000000,1.000000,0.995495
622,Palembang,622,4442.550,1443.765,103.96981,-36.89343,18.026,202.760,206.662,1.000000,1.000000,0.991961
623,Lampung,795,4446.197,1471.101,104.20296,-39.29595,21.083,205.306,208.395,1.000000,1.000000,0.991195
624,Banten,187,4462.722,1500.209,105.25921,-41.85427,22.513,203.102,209.091,1.000000,1.000000,1.000000
625,Priangan,243,4495.226,1514.930,107.33691,-43.14815,25.000,210.358,212.008,1.000000,1.000000,1.000000
626,Mataram,127,4515.906,1517.150,108.65873,-43.34323,25.000,207.732,210.661,1.000000,1.000000,1.000000
627,Blambangan,284,4581.803,1526.444,112.87092,-44.16009,23.120,206.856,211.303,1.000000,1.000000,1.000000
628,Surabaya,228,4556.456,1513.031,111.25075,-42.98121,23.250,204.197,208.548,1.000000,1.000000,0.982456
629,Demak,116,4539.741,1505.216,110.18233,-42.29433,20.371,202.733,207.621,1.000000,1.000000,1.000000
630,Sunda,135,4477.933,1497.141,106.23153,-41.58464,19.022,203.852,208.259,1.000000,1.000000,0.992593
631,Bali-Lombok,115,4603.130,1530.635,114.23419,-44.52845,22.887,197.904,209.226,1.000000,1.000000,0.939130
632,Sumbawa,330,4646.094,1534.661,116.98044,-44.88228,23.909,198.973,208.936,1.000000,1.000000,0.981818
633,Flores,423,4708.993,1533.028,121.00097,-44.73882,21.234,201.811,211.142,1.000000,1.000000,0.992908
634,Sumba,232,4678.366,1552.836,119.04331,-46.47974,24.728,202.599,209.974,1.000000,1.000000,0.982759
635,Timor,314,4741.312,1554.736,123.06682,-46.64669,24.513,203.115,209.398,1.000000,1.000000,1.000000
636,Brunei,482,4597.768,1335.077,113.89140,-27.34073,18.185,208.102,210.191,1.000000,1.000000,0.997925
637,Sabah,607,4624.435,1309.819,115.59598,-25.12079,19.381,209.389,212.881,1.000000,1.000000,0.995058
638,Kutei,632,4626.142,1395.799,115.70513,-32.67765,18.957,206.030,207.087,1.000000,1.000000,0.998418
639,Banjarmasin,510,4584.976,1440.947,113.07378,-36.64574,18.565,203.616,206.227,1.000000,1.000000,1.000000
640,Sukadane,365,4512.734,1382.395,108.45602,-31.49952,16.000,203.236,207.430,1.000000,0.994521,0.994521
641,Makassar,150,4678.220,1485.187,119.03395,-40.53398,20.720,201.393,209.773,1.000000,1.000000,0.986667
642,Bone,310,4698.165,1443.090,120.30881,-36.83411,23.142,211.200,212.694,1.000000,1.000000,1.000000
643,Pose,679,4705.529,1419.750,120.77953,-34.78268,21.408,206.591,212.598,1.000000,1.000000,0.973490
644,Menade,238,4754.849,1371.924,123.93209,-30.57929,21.109,199.639,206.739,1.000000,0.978992,0.953782
645,Buru,176,4782.324,1451.176,125.68832,-37.54478,20.875,202.489,209.182,1.000000,1.000000,0.977273
646,Ambom,40,4809.850,1454.700,127.44780,-37.85449,16.375,193.400,206.975,1.000000,1.000000,0.950000
647,Ceram,373,4825.826,1447.960,128.46897,-37.26209,18.453,199.499,207.525,1.000000,1.000000,0.986595
648,Halmahera,310,4806.823,1382.994,127.25428,-31.55217,16.000,196.087,206.545,1.000000,1.000000,0.961290
649,Ternate,113,4799.540,1371.991,126.78877,-30.58516,16.000,196.513,208.292,1.000000,1.000000,0.973451
650,Tidore,114,4797.272,1413.386,126.64380,-34.22338,16.000,194.982,210.281,1.000000,1.000000,0.973684
651,Sulu,60,4697.300,1305.233,120.25355,-24.71777,15.850,182.117,204.000,1.000000,0.966667,0.883333
652,Maguindanae,557,4753.149,1294.364,123.82345,-23.76250,16.115,205.750,209.508,1.000000,1.000000,0.982047
653,Tagoloan,279,4750.731,1271.391,123.66890,-21.74332,16.527,210.778,212.939,1.000000,1.000000,1.000000
654,Samar,271,4757.347,1208.472,124.09177,-16.21339,15.993,194.993,204.775,1.000000,0.981550,0.963100
655,Palawan,141,4646.525,1255.674,117.00798,-20.36195,15.986,187.461,207.248,1.000000,0.985816,0.865248
656,Manila,135,4693.889,1171.289,120.03551,-12.94531,15.926,197.815,207.437,1.000000,0.992593,0.955556
657,Samtoy,231,4689.827,1112.749,119.77586,-7.80020,15.974,200.351,212.113,1.000000,0.995671,0.974026
658,Cagayan,549,4707.195,1122.282,120.88604,-8.63810,15.882,198.293,209.845,1.000000,0.970856,0.923497
659,Riau,41,4437.976,1406.537,103.67742,-33.62138,16.000,186.927,212.488,1.000000,0.975610,0.951220
660,Xishuan Banna,660,4377.720,1039.691,99.82583,-1.37908,16.000,214.365,217.288,1.000000,1.000000,1.000000
661,Dali,1601,4371.534,984.221,99.43044,3.49619,16.000,200.041,215.462,1.000000,1.000000,1.000000
662,Yunnan,1542,4417.333,986.977,102.35795,3.25401,15.791,206.269,215.859,1.000000,1.000000,1.000000
663,Wenshan,1481,4426.781,1015.101,102.96183,0.78217,15.468,210.448,216.141,1.000000,1.000000,1.000000
664,Guangxi,912,4466.015,1008.001,105.46973,1.40615,14.908,213.162,217.274,1.000000,1.000000,1.000000
665,XXX,749,4555.939,1026.945,111.21767,-0.25886,14.713,207.785,211.184,1.000000,1.000000,0.993324
666,Hainan,210,4528.033,1080.581,109.43395,-4.97294,14.700,199.071,204.219,1.000000,0.980952,0.966667
667,Guangzhou,596,4577.020,1024.237,112.56521,-0.02079,14.753,201.017,208.574,1.000000,0.993289,0.973154
668,Macau,39,4575.846,1034.949,112.49017,-0.96229,14.410,181.385,202.897,0.974359,0.871795,0.820513
669,Fuzhou,710,4666.732,965.813,118.29966,5.11412,15.724,202.718,213.428,1.000000,0.983099,0.943662
670,Ganzhou,837,4605.428,976.697,114.38103,4.15753,16.000,205.036,214.182,1.000000,1.000000,1.000000
671,Changsha,1377,4568.679,930.346,112.03204,8.23134,15.844,190.441,210.400,1.000000,0.999274,0.995643
672,Chenzhou,1086,4534.713,914.180,109.86090,9.65211,15.972,192.749,212.722,1.000000,1.000000,0.979742
673,Bozhou,1215,4495.838,965.722,107.37600,5.12211,15.997,208.035,215.842,1.000000,1.000000,1.000000
674,Guiyang,1854,4459.469,967.972,105.05127,4.92429,15.421,207.863,215.749,1.000000,1.000000,1.000000
675,Liangshan,788,4429.923,953.000,103.16267,6.24023,16.000,203.260,215.353,1.000000,1.000000,1.000000
676,U-Tsang,712,4202.701,920.076,88.63855,9.13396,16.000,184.348,215.027,1.000000,1.000000,1.000000
677,Qamdo,1172,4240.759,904.537,91.07121,10.49971,16.000,182.988,214.918,1.000000,1.000000,1.000000
678,Kham,1838,4374.142,907.587,99.59715,10.23165,16.000,195.928,215.346,1.000000,1.000000,1.000000
679,Sichuan Pendi,1080,4440.362,891.353,103.82996,11.65845,16.000,201.188,216.773,1.000000,1.000000,1.000000
680,Shenquing,1737,4490.400,903.984,107.02838,10.54829,16.000,198.770,215.740,1.000000,1.000000,1.000000
681,Yichuan,764,4523.742,893.347,109.15965,11.48319,16.000,196.263,215.804,1.000000,1.000000,1.000000
682,Hanyang,973,4586.521,887.385,113.17251,12.00714,15.992,186.444,208.479,1.000000,1.000000,1.000000
683,Nanchang,1212,4603.781,926.148,114.27574,8.60030,16.000,190.296,210.299,1.000000,0.996700,0.988449
684,Hangzhou,569,4674.239,898.682,118.77948,11.01429,15.248,196.619,209.796,1.000000,0.996485,0.978910
685,Huai'an,725,4681.513,855.844,119.24445,14.77932,15.423,181.669,205.858,1.000000,0.986207,0.957241
686,Anqing,701,4629.598,893.227,115.92599,11.49374,15.544,194.809,209.940,1.000000,1.000000,1.000000
687,Running,898,4562.552,847.294,111.64042,15.53080,15.949,192.284,211.741,1.000000,1.000000,1.000000
688,Kaifeng,550,4587.016,821.898,113.20417,17.76286,15.391,183.891,206.904,1.000000,1.000000,1.000000
689,Fengyuan,1179,4487.823,848.777,106.86367,15.40047,16.000,200.102,215.884,1.000000,1.000000,1.000000
690,Shandong Bandao,754,4660.568,794.509,117.90560,20.17008,16.000,175.663,209.450,1.000000,0.992042,0.977454
691,Jinan,787,4631.590,783.144,116.05331,21.16902,16.000,177.508,209.042,1.000000,1.000000,1.000000
692,Handan,574,4585.350,797.899,113.09767,19.87216,15.993,183.247,210.303,1.000000,1.000000,1.000000
693,Sanguan,781,4547.818,770.551,110.69861,22.27583,16.000,182.266,215.855,1.000000,1.000000,1.000000
694,Changzhi,857,4542.564,801.412,110.36273,19.56341,16.000,191.389,215.216,1.000000,1.000000,1.000000
695,Beijing,691,4629.094,752.392,115.89380,23.87178,16.000,165.592,205.936,0.992764,0.992764,0.963821
696,Xuan Fu,528,4607.195,738.729,114.49400,25.07263,16.000,168.350,211.313,1.000000,1.000000,1.000000
697,Datong,1154,4577.161,725.345,112.57422,26.24898,16.000,168.062,215.310,1.000000,1.000000,1.000000
698,Guyuan,937,4461.851,761.858,105.20352,23.03982,16.000,181.422,215.713,1.000000,1.000000,1.000000
699,Lanzhou,1504,4433.670,796.802,103.40222,19.96859,16.000,188.600,215.214,1.000000,1.000000,1.000000
700,Shaanxi,1344,4511.188,829.863,108.35716,17.06281,16.000,197.772,215.501,1.000000,1.000000,1.000000
701,Ordos,1780,4517.119,738.951,108.73627,25.05317,16.000,175.242,215.761,1.000000,1.000000,1.000000
702,Ulaanchab,1277,4548.835,707.958,110.76359,27.77709,16.000,163.991,215.169,1.000000,1.000000,0.981206
703,Chengde,1486,4647.639,692.952,117.07922,29.09606,16.000,156.856,215.017,1.000000,1.000000,0.671602
704,Liaoxi,442,4683.633,709.640,119.37998,27.62927,16.000,158.032,210.550,0.988688,0.968326,0.837104
705,Dangla,4129,4296.137,838.239,94.61100,16.32667,16.577,175.929,215.418,1.000000,1.000000,1.000000
706,Amdo,2539,4252.312,764.693,91.80969,22.79064,19.456,152.599,216.766,1.000000,1.000000,0.459236
707,Yumen,2991,4289.597,716.766,94.19298,27.00296,19.311,143.654,216.810,1.000000,1.000000,0.000000
708,Gansu,1461,4355.783,734.267,98.42363,25.46482,18.400,155.589,216.256,1.000000,1.000000,0.568789
709,Ningxia,2270,4446.760,736.863,104.23891,25.23661,16.287,174.155,215.244,1.000000,1.000000,1.000000
710,Hotan,2261,4054.233,802.205,79.14839,19.49368,16.000,187.352,215.176,1.000000,1.000000,1.000000
711,Qarqan,3572,4171.707,774.042,86.65744,21.96899,17.138,177.524,215.575,1.000000,1.000000,1.000000
712,Uighuristan,1343,4060.602,726.127,79.55555,26.18022,16.000,173.844,214.769,1.000000,1.000000,1.000000
713,Kuruk Tag,983,4216.111,641.512,89.49572,33.61714,19.522,139.654,217.336,1.000000,1.000000,0.000000
714,Dzungaria,2498,4162.285,580.785,86.05515,38.95441,16.000,134.498,216.301,1.000000,1.000000,0.000000
715,Urumqi,3687,4160.039,644.627,85.91155,33.34330,17.138,146.103,215.500,1.000000,1.000000,0.048007
716,Tannu Tuva,7232,4283.595,496.625,93.80937,46.35133,16.000,126.231,215.429,1.000000,0.820382,0.000000
717,Selenge,3183,4527.742,569.953,109.41533,39.90649,15.991,129.555,215.596,1.000000,0.980522,0.000000
718,Govi Altay,1563,4244.853,579.108,91.33292,39.10182,16.967,140.895,216.227,1.000000,1.000000,0.000000
719,Khangai,3424,4309.764,559.275,95.48206,40.84499,16.168,136.209,216.204,1.000000,1.000000,0.000000
720,Dorno Govi,2536,4473.224,663.913,105.93048,31.64828,16.446,153.805,215.588,1.000000,1.000000,0.375000
721,Dornod,3351,4576.326,597.637,112.52085,37.47335,15.673,131.034,215.497,1.000000,0.991644,0.000000
722,Chahar,902,4698.585,631.299,120.33571,34.51471,16.000,142.958,214.481,1.000000,1.000000,0.000000
723,Xilin Gol,1786,4622.512,631.417,115.47309,34.50440,15.096,137.801,216.086,1.000000,1.000000,0.000000
724,Yakesa,2609,4694.391,508.276,120.06758,45.32734,16.520,122.977,215.849,1.000000,0.647374,0.000000
725,Hinggan,996,4741.943,577.433,123.10714,39.24908,16.000,135.985,211.530,1.000000,1.000000,0.000000
726,Liaodong,1373,4726.940,675.828,122.14812,30.60104,16.000,152.296,210.746,1.000000,1.000000,0.151493
727,Heilongjiang,1434,4809.317,546.215,127.41375,41.99278,16.000,133.610,215.843,1.000000,1.000000,0.000000
728,Sanxing,805,4787.517,570.355,126.02025,39.87112,16.000,137.640,214.468,1.000000,1.000000,0.000000
729,Wusuli,2369,4947.595,571.258,136.25251,39.79178,15.999,131.191,212.775,0.993668,0.976783,0.000000
730,Haixi,722,4784.528,650.990,125.82919,32.78406,16.349,155.543,214.623,1.000000,1.000000,0.563712
731,Ninguta,1948,4842.325,597.579,129.52364,37.47840,16.494,140.481,212.626,1.000000,1.000000,0.000000
732,Hamheung,703,4796.437,723.378,126.59041,26.42182,16.000,165.919,213.538,0.991465,0.980085,0.947368
733,Hwangju,239,4763.849,754.042,124.50742,23.72679,15.916,160.105,207.188,1.000000,1.000000,0.912134
734,Gangwon,402,4801.323,764.226,126.90277,22.83167,16.000,173.980,214.806,1.000000,1.000000,1.000000
735,Hanseong,235,4787.464,764.536,126.01686,22.80444,15.983,166.685,208.660,1.000000,1.000000,0.948936
736,Sangju,295,4814.939,789.681,127.77309,20.59441,16.000,172.105,212.322,1.000000,0.986441,0.945763
737,Jeonju,227,4788.185,804.965,126.06296,19.25114,16.000,172.974,210.026,1.000000,1.000000,0.991189
738,Taiwan,194,4686.634,1026.954,119.57178,-0.25959,15.665,197.077,205.505,0.994845,0.958763,0.958763
739,Kashgar,1648,3984.296,733.266,74.67802,25.55276,16.000,169.677,215.429,1.000000,1.000000,1.000000
740,Chanderi,402,4017.042,1001.933,76.77117,1.93950,15.408,214.251,216.087,1.000000,1.000000,1.000000
741,Cumana,416,1817.411,1014.635,-63.83026,0.82313,15.745,178.796,207.784,0.995192,0.971154,0.911058
742,Guayana,2076,1816.870,1080.436,-63.86485,-4.96023,15.957,202.037,213.967,1.000000,1.000000,1.000000
743,Essequibo,741,1878.938,1061.804,-59.89743,-3.32265,15.968,188.819,205.506,1.000000,0.990553,0.946019
744,Demerara,857,1899.197,1092.457,-58.60245,-6.01676,15.897,199.089,206.127,1.000000,0.994166,0.968495
745,Paramaribo,707,1937.672,1090.516,-56.14313,-5.84616,15.543,193.625,206.487,1.000000,0.998586,0.951909
746,Cayenne,1051,1977.919,1106.498,-53.57051,-7.25077,15.709,196.248,205.868,0.999049,0.994291,0.960990
747,Tucujulandia,1139,2000.695,1174.657,-52.11464,-13.24131,15.652,204.314,209.061,1.000000,0.995610,0.987709
748,Grao Para,1497,2060.467,1209.470,-48.29402,-16.30104,15.278,203.062,206.532,1.000000,0.999332,0.994656
749,Maranhao,1140,2123.325,1234.270,-44.27607,-18.48078,15.780,203.784,206.239,1.000000,0.998246,0.994737
750,Crato,1184,2189.074,1278.677,-40.07337,-22.38375,15.986,214.552,214.522,1.000000,1.000000,1.000000
751,Ceara,1671,2187.785,1246.087,-40.15582,-19.51935,15.609,207.516,210.186,1.000000,0.995212,0.992819
752,Oeiras,2454,2149.208,1296.400,-42.62163,-23.94142,16.229,214.912,215.149,1.000000,1.000000,1.000000
753,Rio Grande,994,2233.412,1270.054,-37.23926,-21.62587,15.947,205.270,207.446,1.000000,0.995976,0.987928
754,Itamaraca,570,2246.160,1290.160,-36.42445,-23.39294,16.000,209.879,211.088,1.000000,1.000000,0.980702
755,Pernambuco,508,2247.927,1307.774,-36.31147,-24.94104,16.000,209.803,211.287,1.000000,1.000000,0.978346
756,Bahia,435,2206.324,1372.901,-38.97076,-30.66514,16.000,206.308,209.963,1.000000,0.997701,0.986207
757,Ilheus,563,2191.913,1404.561,-39.89193,-33.44777,16.000,205.156,208.870,1.000000,1.000000,0.992895
758,Goias,2229,2020.792,1416.983,-50.83004,-34.53956,19.226,214.969,215.487,1.000000,1.000000,1.000000
759,Diamantina,2051,2124.765,1440.359,-44.18402,-36.59408,19.000,216.000,217.000,1.000000,1.000000,1.000000
760,Porto Seguro,888,2184.931,1452.099,-40.33820,-37.62590,17.713,206.104,208.082,1.000000,1.000000,0.986486
761,Espirito Santo,1342,2165.976,1498.971,-41.54982,-41.74549,18.817,209.944,211.700,1.000000,1.000000,0.994784
762,Sao Tome,636,2147.121,1534.967,-42.75505,-44.90921,18.028,209.002,211.123,1.000000,1.000000,0.996855
763,Rio de Janeiro,468,2122.571,1540.184,-44.32433,-45.36771,18.064,214.056,215.620,1.000000,1.000000,0.997863
764,Santo Amaro,459,2098.176,1549.233,-45.88361,-46.16307,18.176,214.150,215.983,1.000000,1.000000,1.000000
765,Santa Luzia,2302,2110.252,1491.252,-45.11171,-41.06703,19.005,216.000,217.000,1.000000,1.000000,1.000000
766,Sao Vicente,986,2067.212,1564.831,-47.86287,-47.53394,18.151,213.992,215.902,1.000000,1.000000,0.995943
767,Wystruc,706,3148.263,447.167,21.23843,50.69820,14.446,112.792,207.548,1.000000,0.000000,0.000000
768,Guayra,2250,1981.915,1571.639,-53.31509,-48.13230,19.011,215.989,216.908,1.000000,1.000000,1.000000
769,Curitiba,692,2038.582,1588.746,-49.69289,-49.63585,18.306,214.210,215.821,1.000000,1.000000,1.000000
770,Braslaw,530,3231.366,420.889,26.55039,53.00783,14.672,102.991,209.151,1.000000,0.000000,0.000000
771,Vitebsk,1062,3282.843,420.419,29.84080,53.04911,14.588,101.611,209.532,1.000000,0.000000,0.000000
772,Uruguay,1337,1915.018,1712.298,-57.59118,-60.49498,21.190,207.530,207.786,1.000000,1.000000,1.000000
773,Banda Oriente,1443,1955.967,1722.326,-54.97372,-61.37628,21.245,206.545,208.063,1.000000,1.000000,0.997921
774,Al Junaynah,2066,3159.416,1175.530,21.95129,-13.31802,20.361,211.666,217.596,1.000000,1.000000,1.000000
775,Asuncion,1520,1926.907,1579.081,-56.83121,-48.78641,19.509,211.747,211.992,1.000000,1.000000,1.000000
776,Itenines,2816,1935.352,1543.141,-56.29140,-45.62763,18.578,214.182,214.602,1.000000,1.000000,1.000000
777,Parana,1024,1894.102,1640.011,-58.92817,-54.14157,18.701,205.838,206.168,1.000000,1.000000,1.000000
778,Rio de la Plata,1152,1880.018,1756.154,-59.82838,-64.34944,22.208,204.514,206.437,1.000000,1.000000,1.000000
779,Tandil,1734,1878.286,1807.020,-59.93910,-68.82008,22.566,203.171,205.284,1.000000,1.000000,0.997116
780,Candelaria Patagones,1464,1779.855,1885.240,-66.23085,-75.69496,23.527,207.025,210.273,1.000000,1.000000,0.991803
781,Puerto Desaedo,1145,1757.970,1928.155,-67.62974,-79.46671,23.693,208.873,210.588,1.000000,1.000000,0.983406
782,Tierra del Fuego,764,1753.329,2007.156,-67.92644,-86.41017,21.780,200.898,209.552,1.000000,1.000000,0.982984
783,Alacaluf,2062,1697.632,1954.116,-71.48660,-81.74847,22.553,202.652,211.245,1.000000,1.000000,0.991271
784,Huillimapu,657,1698.691,1777.586,-71.41890,-66.23314,24.416,211.846,213.268,1.000000,1.000000,1.000000
785,Pehuenmapu,1608,1722.807,1805.968,-69.87742,-68.72763,25.000,216.000,217.000,1.000000,1.000000,1.000000
786,Carmen Patagones,1400,1820.611,1831.676,-63.62569,-70.98719,23.056,203.246,205.474,1.000000,1.000000,0.992857
787,Pincunmapu,952,1706.420,1736.724,-70.92485,-62.64173,21.603,212.560,213.537,1.000000,1.000000,1.000000
788,Angoche,710,3414.161,1659.065,38.23470,-55.81624,24.459,206.817,208.624,1.000000,1.000000,0.997183
789,Mtetwa,1665,3297.416,1846.411,30.77234,-72.28225,24.580,212.465,214.073,1.000000,0.999399,0.986787
790,Chaco Austral,3063,1858.509,1631.805,-61.20324,-53.42037,19.468,206.907,207.109,1.000000,1.000000,1.000000
791,Catamarca,1972,1758.301,1632.428,-67.60862,-53.47516,23.182,216.000,217.000,1.000000,1.000000,1.000000
792,Copiapo,1681,1713.329,1630.733,-70.48323,-53.32613,24.454,213.487,214.493,1.000000,1.000000,1.000000
793,Atacama,780,1722.785,1508.271,-69.87882,-42.56284,22.038,213.924,214.894,1.000000,1.000000,1.000000
794,Jujuy,2260,1802.597,1560.729,-64.77716,-47.17347,21.506,215.716,216.654,1.000000,1.000000,1.000000
795,Potosi,561,1770.923,1500.119,-66.80177,-41.84643,22.037,215.918,216.929,1.000000,1.000000,1.000000
796,Arica,540,1719.026,1479.383,-70.11908,-40.02393,20.233,213.728,215.107,1.000000,1.000000,1.000000
797,Oruro,846,1744.143,1477.257,-68.51358,-39.83700,20.603,215.408,217.032,1.000000,1.000000,1.000000
798,Mbwila,651,3044.210,1534.593,14.58732,-44.87633,25.000,215.851,216.636,1.000000,1.000000,1.000000
799,Chaco Boreal,2433,1868.460,1511.896,-60.56719,-42.88149,19.216,211.639,211.894,1.000000,1.000000,1.000000
800,Chiquitos,3876,1838.065,1422.907,-62.51005,-35.06017,17.235,212.810,213.043,1.000000,1.000000,1.000000
801,Caranga,1369,1785.636,1450.662,-65.86137,-37.49957,19.346,212.963,213.315,1.000000,1.000000,1.000000
802,Chuquiabo,907,1741.043,1426.816,-68.71174,-35.40374,18.788,215.505,216.709,1.000000,1.000000,1.000000
803,Moxos,1464,1781.053,1417.389,-66.15431,-34.57518,17.539,209.044,209.691,1.000000,1.000000,1.000000
804,Puno,555,1712.449,1436.935,-70.53950,-36.29313,18.443,214.609,218.177,1.000000,1.000000,0.994595
805,Arequipa,728,1703.196,1454.714,-71.13091,-37.85575,18.299,214.607,215.990,1.000000,1.000000,1.000000
806,Nazca,965,1633.640,1408.579,-75.57696,-33.80091,18.027,212.717,213.886,1.000000,1.000000,1.000000
807,Huamanga,912,1655.141,1400.752,-74.20261,-33.11299,18.918,216.000,217.000,1.000000,1.000000,1.000000
808,Cuzco,825,1668.257,1379.441,-73.36426,-31.23995,17.084,216.000,217.000,1.000000,1.000000,1.000000
809,Lima,531,1613.217,1372.458,-76.88246,-30.62616,16.051,212.932,214.202,1.000000,1.000000,1.000000
810,Huancavelica,608,1638.985,1375.090,-75.23532,-30.85756,16.439,216.000,217.000,1.000000,1.000000,1.000000
811,Tarma,514,1628.014,1357.909,-75.93663,-29.34743,16.000,216.000,217.000,1.000000,1.000000,1.000000
812,Chanchan,564,1583.427,1314.012,-78.78661,-25.48937,16.000,212.028,213.422,1.000000,1.000000,1.000000
813,Cajamarca,1207,1585.128,1279.964,-78.67787,-22.49680,16.000,215.964,216.893,1.000000,1.000000,1.000000
814,Huanuco,820,1627.450,1333.921,-75.97266,-27.23913,16.000,215.979,216.616,1.000000,1.000000,1.000000
815,Maynas,2187,1650.209,1220.066,-74.51789,-17.23235,15.901,209.205,209.916,1.000000,1.000000,1.000000
816,Tumbes,419,1556.315,1238.561,-80.51964,-18.85789,16.000,211.203,212.933,1.000000,1.000000,1.000000
817,Cuenca,765,1580.942,1223.850,-78.94544,-17.56491,16.000,215.901,216.624,1.000000,1.000000,1.000000
818,Canelos,1466,1607.550,1194.714,-77.24464,-15.00418,16.000,215.323,215.289,1.000000,1.000000,1.000000
819,Guayaquil,660,1556.682,1206.768,-80.49619,-16.06361,16.000,205.047,208.221,1.000000,1.000000,0.998485
820,Quito,963,1579.346,1187.235,-79.04750,-14.34680,16.000,215.865,216.457,1.000000,1.000000,1.000000
821,Quijos,1364,1613.659,1236.210,-76.85418,-18.65124,16.000,211.500,211.451,1.000000,1.000000,1.000000
822,Caqueta,1798,1647.845,1163.171,-74.66897,-12.23185,15.940,214.389,214.179,1.000000,1.000000,1.000000
823,Cauca,568,1605.250,1124.681,-77.39169,-8.84895,15.722,210.359,212.403,1.000000,1.000000,0.992958
824,Mariquita,649,1630.812,1093.465,-75.75775,-6.10535,15.988,214.431,216.072,1.000000,1.000000,1.000000
825,Bogota,381,1650.633,1103.031,-74.49082,-6.94613,14.892,215.921,216.449,1.000000,1.000000,1.000000
826,Choco,458,1608.609,1096.402,-77.17697,-6.36343,15.991,208.751,210.055,1.000000,1.000000,0.997817
827,Antioquía,812,1627.559,1069.467,-75.96568,-3.99610,16.000,207.089,214.346,1.000000,1.000000,1.000000
828,Cartagena,360,1632.683,1025.011,-75.63814,-0.08887,15.219,186.594,206.783,1.000000,1.000000,1.000000
829,Magdalena,552,1646.375,1011.947,-74.76296,1.05930,15.007,185.025,207.784,1.000000,0.996377,0.974638
830,Maracaibo,389,1677.357,1009.422,-72.78256,1.28131,15.910,182.812,208.455,1.000000,0.969152,0.928021
831,Caracas,263,1768.418,1014.833,-66.96190,0.80572,15.966,186.962,211.403,1.000000,0.988593,0.950570
832,Chiancon,468,1665.408,1083.607,-73.54636,-5.23888,15.098,211.222,215.692,1.000000,1.000000,1.000000
833,Graaff-Reinet,1902,3204.584,1932.978,24.83844,-79.89068,24.251,214.034,215.695,1.000000,0.998948,0.998423
834,Barinas,1015,1719.314,1047.742,-70.10065,-2.08669,15.988,196.623,207.551,1.000000,1.000000,1.000000
835,Panama,367,1567.411,1033.381,-79.81035,-0.82454,15.888,187.804,204.714,0.997275,0.978202,0.907357
836,Chorotega,334,1503.141,1030.940,-83.91856,-0.60997,16.000,203.075,210.856,1.000000,1.000000,0.982036
837,Nicaragua,600,1459.812,970.407,-86.68817,4.71035,15.095,186.482,212.787,1.000000,1.000000,0.981667
838,Mosquito,344,1498.927,957.407,-84.18788,5.85290,15.547,172.392,203.020,1.000000,0.944767,0.869186
839,Pipil,517,1420.265,956.060,-89.21602,5.97129,15.954,183.524,212.238,0.998066,0.998066,0.969052
840,Honduras,556,1482.121,930.987,-85.26218,8.17493,15.865,176.933,208.324,1.000000,0.985612,0.911871
841,Guatemala,250,1379.688,947.236,-91.80972,6.74684,15.968,179.664,210.380,1.000000,1.000000,0.952000
842,Petén,524,1395.574,898.462,-90.79425,11.03363,16.000,180.922,210.945,1.000000,1.000000,1.000000
843,Belize,283,1422.799,891.332,-89.05407,11.66026,15.947,172.636,204.883,0.989399,0.975265,0.865724
844,Zapotec,336,1312.342,911.185,-96.11449,9.91542,16.000,178.577,213.241,1.000000,0.997024,0.958333
845,Campeche,284,1398.250,864.239,-90.62322,14.04146,16.000,171.180,206.944,1.000000,1.000000,0.992958
846,Yucatan,290,1428.138,836.369,-88.71277,16.49101,16.000,163.290,205.700,1.000000,0.986207,0.886207
847,Mixtec,455,1290.048,916.114,-97.53952,9.48214,16.000,181.363,212.259,1.000000,0.997802,0.980220
848,Tohancapan,233,1281.549,842.283,-98.08278,15.97120,16.000,186.459,209.833,1.000000,0.982833,0.939914
849,Tlapanec,230,1266.391,907.139,-99.05169,10.27097,16.000,184.857,212.330,1.000000,1.000000,0.986957
850,Tlaxcala,159,1274.038,856.409,-98.56293,14.72969,16.491,197.723,214.943,1.000000,1.000000,1.000000
851,Tarasco,141,1211.624,884.362,-102.55244,12.27290,16.000,188.355,211.447,1.000000,1.000000,1.000000
852,Mexico,216,1253.981,855.847,-99.84493,14.77905,17.222,202.255,215.528,1.000000,1.000000,1.000000
853,Huastec,223,1263.238,841.417,-99.25327,16.04733,16.000,200.529,216.493,1.000000,1.000000,1.000000
854,Sayultecas,310,1174.661,833.642,-104.91512,16.73069,15.994,182.813,214.665,1.000000,1.000000,0.996774
855,Huichol,429,1148.238,792.044,-106.60412,20.38673,16.000,171.490,211.862,1.000000,1.000000,0.997669
856,Zacatecas,903,1199.462,779.714,-103.32986,21.47042,16.000,185.444,214.815,1.000000,1.000000,1.000000
857,Guachichil,672,1226.860,794.737,-101.57854,20.15010,16.000,199.293,215.973,1.000000,1.000000,1.000000
858,Tamaulipas,916,1266.925,797.697,-99.01760,19.88996,15.974,189.672,211.238,0.997817,0.982533,0.978166
859,Sinaloa,959,1121.122,762.468,-108.33737,22.98619,15.971,167.740,209.536,1.000000,1.000000,0.979145
860,Tepehuan,1084,1175.875,753.095,-104.83751,23.81001,16.000,175.685,216.101,1.000000,1.000000,1.000000
861,Coahuila,935,1218.866,734.998,-102.08951,25.40058,16.000,177.281,215.385,1.000000,1.000000,1.000000
862,Yaqui,731,1070.772,703.347,-111.55580,28.18235,16.000,157.212,210.492,1.000000,0.991792,0.700410
863,Suma,1197,1142.203,676.547,-106.98986,30.53784,16.474,160.461,215.626,1.000000,1.000000,1.000000
864,Concho,1273,1154.618,698.916,-106.19628,28.57184,16.045,165.495,214.989,1.000000,1.000000,1.000000
865,Cochimi,1105,1043.544,736.748,-113.29620,25.24672,15.991,159.236,207.881,0.986425,0.971946,0.762896
866,Guaycura,699,1075.698,781.585,-111.24089,21.30600,15.886,163.190,205.532,0.987124,0.962804,0.891273
867,Mojave,935,1008.850,617.456,-115.51383,35.73144,15.857,133.758,212.914,1.000000,1.000000,0.000000
868,Chumash,747,948.299,605.894,-119.38433,36.74758,15.114,128.185,209.179,0.991968,0.866131,0.000000
869,Salinan,529,918.399,577.212,-121.29553,39.26850,15.450,124.295,211.888,1.000000,0.705104,0.000000
870,Yorkuts,549,928.834,562.701,-120.62849,40.54383,15.683,123.388,209.599,1.000000,0.575592,0.000000
871,Pomo,434,882.843,515.300,-123.56825,44.71000,14.862,117.779,213.207,1.000000,0.000000,0.000000
872,Kalapuya,595,875.582,416.939,-124.03243,53.35493,15.872,101.089,208.876,1.000000,0.000000,0.000000
873,Chinook,721,892.359,390.258,-122.95999,55.69998,15.259,99.082,209.852,0.973648,0.000000,0.000000
874,Salish,705,904.542,347.085,-122.18127,59.49447,15.238,102.875,209.925,0.950355,0.000000,0.000000
875,Canyon,1092,1084.502,569.189,-110.67815,39.97365,16.000,132.387,215.807,1.000000,1.000000,0.000000
876,Yavapai,1325,1041.165,620.730,-113.44829,35.44367,16.000,139.011,214.481,1.000000,1.000000,0.000000
877,Pima,770,1052.918,639.121,-112.69699,33.82728,16.000,146.105,215.327,1.000000,1.000000,0.000000
878,Navajo,1011,1122.379,569.785,-108.25703,39.92121,16.000,138.092,217.158,1.000000,1.000000,0.000000
879,Apache,517,1090.882,636.946,-110.27033,34.01843,16.000,150.994,215.412,1.000000,1.000000,0.073501
880,Pueblo,461,1154.505,569.859,-106.20349,39.91474,16.000,139.349,216.022,1.000000,1.000000,0.000000
881,Piro,899,1134.406,632.434,-107.48825,34.41500,16.440,153.831,215.915,1.000000,1.000000,0.327030
882,Mescalero,1052,1168.610,633.767,-105.30190,34.29781,17.628,153.132,215.726,1.000000,1.000000,0.314639
883,Lipan,970,1255.386,691.004,-99.75518,29.26722,16.699,160.876,213.676,1.000000,1.000000,0.963918
884,Karankawa,952,1287.845,704.117,-97.68039,28.11475,16.151,154.040,207.011,0.996849,0.976891,0.474790
885,Comanche,1885,1216.986,595.289,-102.20969,37.67967,16.266,140.918,215.849,1.000000,1.000000,0.000000
886,Waco,900,1291.249,627.206,-97.46278,34.87451,16.013,140.773,212.197,1.000000,1.000000,0.000000
887,Tonkawa,828,1304.912,651.057,-96.58944,32.77821,16.308,140.156,208.571,1.000000,1.000000,0.000000
888,Atakapa,702,1310.028,688.876,-96.26238,29.45425,16.154,144.765,205.276,0.988604,0.960114,0.000000
889,Arapaho,1305,1204.384,557.861,-103.01523,40.96922,16.000,133.897,215.705,1.000000,1.000000,0.000000
890,Kiowa,1855,1259.906,547.017,-99.46622,41.92236,16.000,129.570,215.579,1.000000,0.993531,0.000000
891,Jicarilla,1587,1260.231,575.208,-99.44549,39.44461,16.000,135.428,216.454,1.000000,1.000000,0.000000
892,Wichita,919,1269.728,599.951,-98.83841,37.26993,16.000,139.366,216.760,1.000000,1.000000,0.000000
893,Chitimacha,540,1390.398,688.961,-91.12512,29.44678,16.889,129.774,202.456,0.977778,0.879630,0.000000
894,Caddo,643,1354.215,622.619,-93.43799,35.27763,17.414,133.023,206.770,1.000000,1.000000,0.000000
895,Arkansas,465,1376.912,620.508,-91.98717,35.46321,18.761,133.258,206.000,1.000000,1.000000,0.000000
896,Ozark,835,1305.564,607.570,-96.54775,36.60029,16.000,136.143,213.207,1.000000,1.000000,0.000000
897,Quapaw,594,1371.108,600.411,-92.35817,37.22952,16.146,134.557,207.099,1.000000,1.000000,0.000000
898,Kansas,1183,1301.930,521.631,-96.78005,44.15349,16.000,128.411,215.563,1.000000,1.000000,0.000000
899,Osage,886,1366.411,558.061,-92.65840,40.95167,16.000,137.718,216.124,1.000000,1.000000,0.000000
900,Tamaroa,751,1381.091,532.795,-91.72006,43.17232,16.000,132.462,214.316,1.000000,1.000000,0.000000
901,Pawnee,885,1244.411,493.000,-100.45666,46.66992,16.000,122.268,215.869,1.000000,0.494915,0.000000
902,Missouri,1055,1335.726,510.437,-94.61978,45.13738,16.000,128.927,214.717,1.000000,1.000000,0.000000
903,Omaha,989,1295.004,479.376,-97.22275,47.86733,16.000,122.863,214.875,1.000000,0.539939,0.000000
904,Nakota,1051,1356.685,438.368,-93.28007,51.47154,15.772,108.883,215.926,1.000000,0.000000,0.000000
905,Iowa,1141,1353.323,458.179,-93.49501,49.73038,16.000,118.069,215.216,1.000000,0.118317,0.000000
906,Lakota,1350,1270.295,383.226,-98.80218,56.31803,15.750,111.059,215.039,1.000000,0.000000,0.000000
907,Dakota,1525,1283.917,426.136,-97.93146,52.54661,16.000,117.894,216.620,1.000000,0.044590,0.000000
908,Minnesota,1333,1322.011,384.041,-95.49644,56.24637,14.304,92.230,216.341,0.673668,0.000000,0.000000
909,Mandan,911,1241.666,380.616,-100.63213,56.54744,15.238,113.196,216.004,1.000000,0.000000,0.000000
910,Chippewa,1479,1368.013,356.181,-92.55600,58.69507,11.858,74.605,211.639,0.000000,0.000000,0.000000
911,Menominee,775,1462.996,387.414,-86.48462,55.94992,14.564,78.328,201.086,0.000000,0.000000,0.000000
912,Sauk,977,1404.777,414.060,-90.20602,53.60797,14.662,93.058,215.459,0.858751,0.000000,0.000000
913,Fox,1044,1394.387,437.552,-90.87015,51.54331,15.477,104.440,215.191,1.000000,0.000000,0.000000
914,Winnebago,945,1426.603,437.939,-88.81088,51.50930,15.335,99.685,208.570,0.857143,0.000000,0.000000
915,Illinois,793,1401.047,477.482,-90.44446,48.03383,16.000,120.498,212.566,1.000000,0.403531,0.000000
916,Kaskaskia,678,1413.544,502.027,-89.64561,45.87657,16.000,125.357,212.159,1.000000,0.849558,0.000000
917,Cahokia,640,1391.680,507.938,-91.04320,45.35706,16.000,125.452,210.648,1.000000,0.901563,0.000000
918,Tennessee,597,1414.347,591.821,-89.59431,37.98450,17.538,137.886,207.759,1.000000,1.000000,0.000000
919,Chickasaw,452,1418.730,614.934,-89.31413,35.95310,19.365,134.131,207.442,1.000000,1.000000,0.000000
920,Choctaw,705,1411.823,640.896,-89.75565,33.67121,19.549,134.218,208.078,1.000000,1.000000,0.000000
921,Bayougoula,518,1393.044,674.384,-90.95597,30.72795,18.919,132.533,205.104,0.994208,0.967181,0.000000
922,Mobile,330,1434.518,667.476,-88.30495,31.33514,17.809,128.561,204.173,0.981818,0.924242,0.000000
923,Pensacola,342,1450.766,668.813,-87.26637,31.21762,16.000,128.041,204.436,0.985380,0.938596,0.000000
924,Alabama,670,1444.206,651.451,-87.68570,32.74359,17.988,129.510,206.406,1.000000,1.000000,0.000000
925,Tuskegee,674,1469.731,643.935,-86.05410,33.40418,18.337,127.688,209.007,1.000000,1.000000,0.000000
926,Seminole,372,1544.785,728.868,-81.25664,25.93931,16.202,135.027,202.734,0.973118,0.919355,0.000000
927,Timucua,336,1529.402,684.780,-82.23994,29.81428,16.884,129.533,202.405,0.976190,0.901786,0.000000
928,Apalachee,396,1491.556,680.899,-84.65909,30.15536,17.470,128.843,204.646,0.994949,0.949495,0.000000
929,Muskogee,347,1531.769,646.764,-82.08860,33.15554,16.968,124.303,204.934,0.985591,0.835735,0.000000
930,Yamasee,586,1485.336,638.485,-85.05664,33.88319,17.879,127.009,210.913,1.000000,0.988055,0.000000
931,Chiaha,314,1481.790,606.360,-85.28332,36.70665,17.844,131.427,213.468,1.000000,1.000000,0.000000
932,Santee,324,1556.775,625.877,-80.49025,34.99132,16.000,121.534,204.204,0.993827,0.555556,0.000000
933,Catawba,598,1542.839,606.037,-81.38100,36.73505,16.000,124.224,208.117,1.000000,0.662207,0.000000
934,Shawnee,427,1466.539,576.937,-86.25818,39.29267,16.000,133.618,210.433,1.000000,1.000000,0.000000
935,Cherokee,583,1502.532,574.681,-83.95749,39.49093,16.000,130.777,214.401,1.000000,1.000000,0.000000
936,Cheraw,519,1535.424,578.254,-81.85501,39.17687,16.000,129.393,213.301,1.000000,1.000000,0.000000
937,Tuscarora,421,1585.228,581.083,-78.67150,38.92824,16.071,130.166,206.689,1.000000,1.000000,0.000000
938,Pamlico,341,1601.088,593.056,-77.65773,37.87596,16.000,126.575,203.604,0.982405,0.791789,0.000000
939,Pennyrile,473,1435.408,581.163,-88.24807,38.92124,16.653,137.036,212.190,1.000000,1.000000,0.000000
940,Kentucky,657,1458.936,548.431,-86.74414,41.79808,16.000,131.601,211.693,1.000000,1.000000,0.000000
941,Cumberland,702,1481.027,559.520,-85.33208,40.82344,16.000,131.412,211.930,1.000000,1.000000,0.000000
942,Wea,584,1449.070,491.807,-87.37477,46.77482,16.000,122.259,212.896,1.000000,0.496575,0.000000
943,Miami,731,1469.721,498.882,-86.05477,46.15292,16.000,123.313,214.201,1.000000,0.597811,0.000000
944,Potawatomi,539,1500.646,457.163,-84.07805,49.81963,15.100,109.733,211.948,0.987013,0.000000,0.000000
945,Michigan,1042,1473.028,419.929,-85.84339,53.09218,15.269,97.976,209.121,0.920345,0.000000,0.000000
946,Wyandot,552,1497.995,479.951,-84.24751,47.81680,15.967,116.630,212.063,0.985507,0.036232,0.000000
947,Erie,741,1533.460,480.924,-81.98053,47.73125,15.368,114.683,214.219,0.983806,0.000000,0.000000
948,Ohio,742,1530.757,504.550,-82.15329,45.65480,15.749,120.775,215.009,1.000000,0.229111,0.000000
949,Monacan,237,1555.456,553.228,-80.57456,41.37646,16.000,127.464,214.692,1.000000,1.000000,0.000000
950,Powhatan,336,1610.021,561.440,-77.08674,40.65465,15.851,119.527,201.304,0.952381,0.523810,0.000000
951,Kanawha,452,1531.825,537.916,-82.08504,42.72223,16.000,128.511,215.560,1.000000,0.988938,0.000000
952,Manahoac,305,1598.692,550.770,-77.81089,41.59244,15.489,120.446,205.721,0.990164,0.203279,0.000000
953,Conoy,230,1607.048,525.922,-77.27677,43.77641,15.704,113.074,202.313,0.939130,0.000000,0.000000
954,Allegheny,470,1558.847,477.036,-80.35780,48.07299,15.045,114.191,214.936,1.000000,0.000000,0.000000
955,Susquehanna,365,1610.904,499.219,-77.03028,46.12331,15.263,116.707,210.301,1.000000,0.000000,0.000000
956,Lenape,263,1627.935,498.099,-75.94163,46.22178,14.973,115.319,208.897,1.000000,0.000000,0.000000
957,Delaware,157,1628.210,522.331,-75.92406,44.09198,15.758,111.694,198.656,0.891720,0.146497,0.000000
958,Seneca,358,1588.863,456.000,-78.43915,49.92188,14.391,108.813,214.964,0.977654,0.000000,0.000000
959,Cayuga,305,1603.902,452.961,-77.47788,50.18900,14.846,107.662,215.030,0.980328,0.000000,0.000000
960,Onondaga,389,1618.306,450.231,-76.55715,50.42888,14.825,107.625,213.661,1.000000,0.000000,0.000000
961,Oneida,369,1628.190,440.821,-75.92537,51.25595,15.076,104.350,213.954,1.000000,0.000000,0.000000
962,Unami,273,1638.491,511.190,-75.26692,45.07115,15.114,112.432,202.747,0.945055,0.000000,0.000000
963,Mahican,309,1653.981,452.447,-74.27681,50.23419,14.851,106.605,212.065,1.000000,0.000000,0.000000
964,Mohawk,561,1642.162,441.686,-75.03225,51.17992,15.148,104.913,215.187,1.000000,0.000000,0.000000
965,Manhattan,344,1657.541,481.721,-74.04925,47.66125,14.956,110.035,203.715,0.924419,0.000000,0.000000
966,Connecticut,227,1678.423,455.837,-72.71444,49.93620,14.608,105.687,212.749,1.000000,0.000000,0.000000
967,Narraganset,194,1688.856,470.686,-72.04758,48.63115,15.258,101.974,202.541,0.886598,0.000000,0.000000
968,Massachusetts,192,1693.641,453.010,-71.74172,50.18463,14.438,94.932,203.443,0.927083,0.000000,0.000000
969,Pocumtuk,274,1668.350,438.985,-73.35829,51.41730,14.303,101.073,216.526,1.000000,0.000000,0.000000
970,Pennacook,301,1697.279,435.538,-71.50915,51.72027,14.143,87.395,208.289,0.548173,0.000000,0.000000
971,Abnaki,508,1730.179,398.955,-69.40616,54.93562,10.427,70.616,204.309,0.000000,0.000000,0.000000
972,Nootka,1342,843.586,314.717,-126.07757,62.33934,15.694,108.519,206.766,0.929955,0.000000,0.000000
973,Squamish,872,901.250,317.635,-122.39169,62.08283,15.448,107.643,213.039,0.983945,0.000000,0.000000
974,Kwakiutl,1215,841.509,279.602,-126.21033,65.42564,15.985,116.306,210.835,0.986008,0.022222,0.000000
975,Tsimshian,1763,814.004,244.548,-127.96850,68.50653,14.794,107.529,209.007,0.951220,0.011912,0.000000
976,Tlingit,2245,745.246,174.681,-132.36352,74.64721,12.834,79.299,199.910,0.150111,0.000000,0.000000
977,Yakutat,2324,627.222,81.382,-139.90768,82.84728,10.990,69.283,206.343,0.000000,0.000000,0.000000
978,Kenai,3493,460.422,65.528,-150.56960,84.24069,8.797,64.981,196.395,0.000000,0.000000,0.000000
979,Aleut,678,178.991,231.087,-168.55880,69.68962,9.580,65.205,180.431,0.000000,0.000000,0.000000
980,Beothuk,1511,1950.411,333.299,-55.32884,60.70613,8.696,64.485,189.419,0.000000,0.000000,0.000000
